DEBUG    phil:log.py:43  
 url:http://183.224.113.211:9001/api/gbserver/tree
 请求参数: area_code=&type=2%2C3%2C4%2C5%2C6%2C7%2C1
 账号：123
 密码：123456
 预期状态码：200
 实际返回状态码: 200
 实际返回值: {'code': 200, 'message': 'ok', 'data': [{'name': '昭通', 'code': '5306', 'parent_code': '53', 'level': 2, 'fullcode': '530600000000', 'fullname': '昭通市', 'total': 82, 'online': 82, 'point_device': [], 'children': [{'name': '昭阳', 'code': '530602', 'parent_code': '5306', 'level': 3, 'fullcode': '530602000000', 'fullname': '昭阳区', 'total': 41, 'online': 41, 'point_device': [], 'children': [{'name': '北闸', 'code': '530602004', 'parent_code': '530602', 'level': 4, 'fullcode': '530602004000', 'fullname': '北闸街道', 'total': 12, 'online': 12, 'point_device': [{'name': '昭通国洋建材有限公司小松包包采区', 'area_name': '北闸', 'total': 8, 'online': 8, 'device': [{'gb_id': '53060000411320003203_53060000411180000032', 'online': 1, 'name': '国洋建材_2号_厂区内监控', 'type': '1', 'lng': 103.792753, 'lat': 27.467471, 'ptz_type': 3}, {'gb_id': '53060000411320003204_53060000411180000032', 'online': 1, 'name': '国洋建材_3号_厂区内监控', 'type': '2', 'lng': 103.792224, 'lat': 27.466949, 'ptz_type': 3}, {'gb_id': '53060000411320003205_53060000411180000032', 'online': 1, 'name': '国洋建材_1号车道_货箱识别', 'type': '7,2', 'lng': 103.787726, 'lat': 27.460089, 'ptz_type': 3}, {'gb_id': '53060000411320003206_53060000411180000032', 'online': 1, 'name': '国洋建材_1号车道出_车牌识别', 'type': '1,2,7', 'lng': 103.78755, 'lat': 27.459828, 'ptz_type': 3}, {'gb_id': '53060000411320003207_53060000411180000032', 'online': 1, 'name': '国洋建材_2号车道进_车牌识别', 'type': '1', 'lng': 103.788226, 'lat': 27.460375, 'ptz_type': 3}, {'gb_id': '53060000411320003208_53060000411180000032', 'online': 1, 'name': '国洋建材_1号车道进_车牌识别', 'type': '1', 'lng': 103.787914, 'lat': 27.460621, 'ptz_type': 3}, {'gb_id': '53060000411320003209_53060000411180000032', 'online': 1, 'name': '国洋建材_2号车道出_车牌识别', 'type': '1,2,7', 'lng': 103.787845, 'lat': 27.459741, 'ptz_type': 3}, {'gb_id': '53060000411320003210_53060000411180000032', 'online': 1, 'name': '国洋建材_2号车道_货箱识别', 'type': '2,7', 'lng': 103.788123, 'lat': 27.46025, 'ptz_type': 3}], 'id': 109}, {'name': '昭通市昭阳区石鑫建材有限公司石灰岩矿', 'area_name': '北闸', 'total': 4, 'online': 4, 'device': [{'gb_id': '53060000411320003704_53060000411180000037', 'online': 1, 'name': '石鑫建材_1号车道出_车牌识别', 'type': '1,2,7,3', 'lng': 103.799078, 'lat': 27.417441, 'ptz_type': 3}, {'gb_id': '53060000411320003705_53060000411180000037', 'online': 1, 'name': '石鑫建材_2号车道进_车牌识别', 'type': '2,7,3', 'lng': 103.799113, 'lat': 27.41738, 'ptz_type': 3}, {'gb_id': '53060000411320003706_53060000411180000037', 'online': 1, 'name': '石鑫建材_2号车道出_车牌识别', 'type': '2,7', 'lng': 103.798876, 'lat': 27.417549, 'ptz_type': 3}, {'gb_id': '53060000411320003707_53060000411180000037', 'online': 1, 'name': '石鑫建材_1号_破碎机监控', 'type': '1,2,7,3', 'lng': 103.798918, 'lat': 27.417461, 'ptz_type': 3}], 'id': 98}], 'children': []}, {'name': '小龙洞', 'code': '530602205', 'parent_code': '530602', 'level': 4, 'fullcode': '530602205000', 'fullname': '小龙洞回族彝族乡', 'total': 29, 'online': 29, 'point_device': [{'name': '昭通市昭阳区龙宝山建材有限公司石灰岩矿', 'area_name': '小龙洞', 'total': 7, 'online': 7, 'device': [{'gb_id': '53060000411320003901_53060000411180000039', 'online': 1, 'name': '昭阳区龙宝山采石场_1号_厂区内监控', 'type': '1,2', 'lng': 103.624806, 'lat': 27.418404, 'ptz_type': 3}, {'gb_id': '53060000411320003903_53060000411180000039', 'online': 1, 'name': '昭阳区龙宝山采石场_2号车道出_车牌识别', 'type': '1', 'lng': 103.625046, 'lat': 27.41724, 'ptz_type': 3}, {'gb_id': '53060000411320003904_53060000411180000039', 'online': 1, 'name': '昭阳区龙宝山采石场_1号车道出_车牌识别', 'type': '1', 'lng': 103.625102, 'lat': 27.417165, 'ptz_type': 3}, {'gb_id': '53060000411320003905_53060000411180000039', 'online': 1, 'name': '昭阳区龙宝山采石场_2号车道进_车牌识别', 'type': '1', 'lng': 103.624976, 'lat': 27.417165, 'ptz_type': 3}, {'gb_id': '53060000411320003906_53060000411180000039', 'online': 1, 'name': '昭阳区龙宝山采石场_1号车道进_车牌识别', 'type': '1', 'lng': 103.62499, 'lat': 27.417065, 'ptz_type': 3}, {'gb_id': '53060000411320003907_53060000411180000039', 'online': 1, 'name': '昭阳区龙宝山采石场_2号车道_货箱识别', 'type': '1', 'lng': 103.625131, 'lat': 27.41704, 'ptz_type': 3}, {'gb_id': '53060000411320003908_53060000411180000039', 'online': 1, 'name': '昭阳区龙宝山采石场_1号车道_货箱识别', 'type': '2,7', 'lng': 103.625141, 'lat': 27.417373, 'ptz_type': 3}], 'id': 116}, {'name': '昭通市昭阳区马真良砂石料有限公司石灰岩矿山', 'area_name': '小龙洞', 'total': 8, 'online': 8, 'device': [{'gb_id': '53060000411320003801_53060000411180000038', 'online': 1, 'name': '马真良砂石料_1号_厂区内监控', 'type': '2', 'lng': 103.810963, 'lat': 27.363126, 'ptz_type': 3}, {'gb_id': '53060000411320003804_53060000411180000038', 'online': 1, 'name': '马真良砂石料_2号_破碎机监控', 'type': '1,2', 'lng': 103.811344, 'lat': 27.361434, 'ptz_type': 3}, {'gb_id': '53060000411320003805_53060000411180000038', 'online': 1, 'name': '马真良砂石料_1号车道进_车牌识别', 'type': '1', 'lng': 103.809566, 'lat': 27.361592, 'ptz_type': 3}, {'gb_id': '53060000411320003806_53060000411180000038', 'online': 1, 'name': '马真良砂石料_1号车道_货箱识别', 'type': '2,7,3', 'lng': 103.809718, 'lat': 27.361716, 'ptz_type': 3}, {'gb_id': '53060000411320003807_53060000411180000038', 'online': 1, 'name': '马真良砂石料_1号车道出_车牌识别', 'type': '1,2,7,3', 'lng': 103.809871, 'lat': 27.361784, 'ptz_type': 3}, {'gb_id': '53060000411320003809_53060000411180000038', 'online': 1, 'name': '马真良砂石料_2号车道出_车牌识别', 'type': '2', 'lng': 103.809871, 'lat': 27.361626, 'ptz_type': 3}, {'gb_id': '53060000411320003810_53060000411180000038', 'online': 1, 'name': '马真良砂石料_2号车道_货箱识别', 'type': '2,7', 'lng': 103.809744, 'lat': 27.361581, 'ptz_type': 3}, {'gb_id': '53060000411320003811_53060000411180000038', 'online': 1, 'name': '马真良砂石料_1号_全域监控', 'type': '6', 'lng': 103.812842, 'lat': 27.361682, 'ptz_type': 1}], 'id': 104}, {'name': '昭通市昭阳区宏凯砂石料有限责任公司石灰岩矿', 'area_name': '小龙洞', 'total': 7, 'online': 7, 'device': [{'gb_id': '53060000411320003103_53060000411180000031', 'online': 1, 'name': '宏凯沙石-破碎近景', 'type': '1,3,7', 'lng': 103.825732, 'lat': 27.341656, 'ptz_type': 3}, {'gb_id': '53060000411320003104_53060000411180000031', 'online': 1, 'name': '宏凯砂石料_1号车道出_车牌识别', 'type': '2,7', 'lng': 103.825723, 'lat': 27.341622, 'ptz_type': 3}, {'gb_id': '53060000411320003105_53060000411180000031', 'online': 1, 'name': '宏凯砂石料_1号车道_货箱识别', 'type': '2,7', 'lng': 103.825655, 'lat': 27.341648, 'ptz_type': 3}, {'gb_id': '53060000411320003106_53060000411180000031', 'online': 1, 'name': '宏凯砂石料_2号车道_货箱识别', 'type': '1', 'lng': 103.825686, 'lat': 27.341622, 'ptz_type': 3}, {'gb_id': '53060000411320003107_53060000411180000031', 'online': 1, 'name': '宏凯砂石料_2号车道进_车牌识别', 'type': '1', 'lng': 103.825649, 'lat': 27.341618, 'ptz_type': 3}, {'gb_id': '53060000411320003108_53060000411180000031', 'online': 1, 'name': '宏凯砂石料_1号车道进_车牌识别', 'type': '1,3', 'lng': 103.825782, 'lat': 27.341634, 'ptz_type': 3}, {'gb_id': '53060000411320003109_53060000411180000031', 'online': 1, 'name': 'IP Camera', 'type': '2', 'lng': 103.826253, 'lat': 27.340896, 'ptz_type': 3}], 'id': 96}, {'name': '昭通市昭阳区棠梨坡砂石料有限公司石灰岩矿', 'area_name': '小龙洞', 'total': 7, 'online': 7, 'device': [{'gb_id': '53060000411320003501_53060000411180000035', 'online': 1, 'name': '棠梨坡砂石料_1号车道进_车牌识别', 'type': '1', 'lng': 103.811661, 'lat': 27.349621, 'ptz_type': 3}, {'gb_id': '53060000411320003502_53060000411180000035', 'online': 1, 'name': '棠梨坡砂石料_2号车道出_车牌识别', 'type': '1,3', 'lng': 103.811712, 'lat': 27.349553, 'ptz_type': 3}, {'gb_id': '53060000411320003503_53060000411180000035', 'online': 1, 'name': '棠梨坡砂石料_2号车道进_车牌识别', 'type': '1', 'lng': 103.811661, 'lat': 27.349497, 'ptz_type': 3}, {'gb_id': '53060000411320003504_53060000411180000035', 'online': 1, 'name': '棠梨坡砂石料_1号车道_货箱识别', 'type': '2,7', 'lng': 103.811674, 'lat': 27.34944, 'ptz_type': 3}, {'gb_id': '53060000411320003505_53060000411180000035', 'online': 1, 'name': '棠梨坡砂石料_2号_全域监控', 'type': '5,4', 'lng': 103.813071, 'lat': 27.350805, 'ptz_type': 1}, {'gb_id': '53060000411320003506_53060000411180000035', 'online': 1, 'name': '棠梨坡砂石料_1号_全域监控', 'type': '5,4', 'lng': 103.81321, 'lat': 27.350038, 'ptz_type': 1}, {'gb_id': '53060000411320003508_53060000411180000035', 'online': 1, 'name': '棠梨坡砂石料_1号_破碎机监控', 'type': '2', 'lng': 103.812436, 'lat': 27.350388, 'ptz_type': 3}], 'id': 93}], 'children': []}]}, {'name': '大关', 'code': '530624', 'parent_code': '5306', 'level': 3, 'fullcode': '530624000000', 'fullname': '大关县', 'total': 25, 'online': 25, 'point_device': [], 'children': [{'name': '天星', 'code': '530624103', 'parent_code': '530624', 'level': 4, 'fullcode': '530624103000', 'fullname': '天星镇', 'total': 10, 'online': 10, 'point_device': [{'name': '大关县天星镇幸福洞石英砂厂', 'area_name': '天星', 'total': 4, 'online': 4, 'device': [{'gb_id': '53060000411320013501_53060000411180000135', 'online': 1, 'name': '大关幸福洞_1号车道出_车牌识别', 'type': '1,5', 'lng': 0, 'lat': 0, 'ptz_type': 3}, {'gb_id': '53060000411320013502_53060000411180000135', 'online': 1, 'name': '大关幸福洞_1号车道_货箱识别', 'type': '2', 'lng': 0, 'lat': 0, 'ptz_type': 3}, {'gb_id': '53060000411320013503_53060000411180000135', 'online': 1, 'name': '大关幸福洞_1号车道进_车牌识别', 'type': '1', 'lng': 0, 'lat': 0, 'ptz_type': 3}, {'gb_id': '53060000411320013505_53060000411180000135', 'online': 1, 'name': '大关幸福洞_2号_全域监控', 'type': '5', 'lng': 0, 'lat': 0, 'ptz_type': 1}], 'id': 89}, {'name': '大关县天星镇星月砂石料场', 'area_name': '天星', 'total': 6, 'online': 6, 'device': [{'gb_id': '53060000411320013701_53060000411180000137', 'online': 1, 'name': '星月砂石_1号车道进_车牌识别', 'type': '1,2', 'lng': 103.977831, 'lat': 27.809773, 'ptz_type': 3}, {'gb_id': '53060000411320013702_53060000411180000137', 'online': 1, 'name': '星月砂石_2号车道出_车牌识别', 'type': '1,2', 'lng': 103.977616, 'lat': 27.809762, 'ptz_type': 3}, {'gb_id': '53060000411320013705_53060000411180000137', 'online': 1, 'name': '星月砂石_1号车道出_车牌识别', 'type': '1,2', 'lng': 103.977882, 'lat': 27.809717, 'ptz_type': 3}, {'gb_id': '53060000411320013706_53060000411180000137', 'online': 1, 'name': '星月砂石_2号车道_货箱识别', 'type': '2', 'lng': 103.977692, 'lat': 27.809694, 'ptz_type': 3}, {'gb_id': '53060000411320013707_53060000411180000137', 'online': 1, 'name': '星月砂石_1号车道_货箱识别', 'type': '2', 'lng': 103.977544, 'lat': 27.809753, 'ptz_type': 3}, {'gb_id': '53060000411320013709_53060000411180000137', 'online': 1, 'name': '星月砂石_2号车道进_车牌识别', 'type': '1,2', 'lng': 103.977791, 'lat': 27.809708, 'ptz_type': 3}], 'id': 86}], 'children': []}, {'name': '木杆', 'code': '530624104', 'parent_code': '530624', 'level': 4, 'fullcode': '530624104000', 'fullname': '木杆镇', 'total': 2, 'online': 2, 'point_device': [{'name': '昭通市开元矿业有限公司大关甘顶铅锌矿', 'area_name': '木杆', 'total': 2, 'online': 2, 'device': [{'gb_id': '53060000411320014101_53060000411180000141', 'online': 1, 'name': '甘顶铅锌矿_2号车道出_车牌识别', 'type': '1', 'lng': 0, 'lat': 0, 'ptz_type': 3}, {'gb_id': '53060000411320014102_53060000411180000141', 'online': 1, 'name': '甘顶铅锌矿_2号车道_货箱识别', 'type': '2', 'lng': 0, 'lat': 0, 'ptz_type': 3}], 'id': 80}], 'children': []}, {'name': '寿山', 'code': '530624107', 'parent_code': '530624', 'level': 4, 'fullcode': '530624107000', 'fullname': '寿山镇', 'total': 13, 'online': 13, 'point_device': [{'name': '大关县凉水沟砂石厂', 'area_name': '寿山', 'total': 7, 'online': 7, 'device': [{'gb_id': '53060000411320013401_53060000411180000134', 'online': 1, 'name': '凉水沟砂石厂_2号_全域监控', 'type': '5', 'lng': 103.907753, 'lat': 28.012053, 'ptz_type': 1}, {'gb_id': '53060000411320013402_53060000411180000134', 'online': 1, 'name': '凉水沟砂石厂_1号_全域监控', 'type': '5', 'lng': 103.906929, 'lat': 28.011722, 'ptz_type': 1}, {'gb_id': '53060000411320013406_53060000411180000134', 'online': 1, 'name': '凉水沟砂石厂_2号车道进_车牌识别', 'type': '1', 'lng': 103.912753, 'lat': 28.009812, 'ptz_type': 3}, {'gb_id': '53060000411320013407_53060000411180000134', 'online': 1, 'name': '凉水沟砂石厂_1号车道进_车牌识别', 'type': '1,3', 'lng': 103.912565, 'lat': 28.009914, 'ptz_type': 3}, {'gb_id': '53060000411320013408_53060000411180000134', 'online': 1, 'name': '凉水沟砂石厂_2号车道出_车牌识别', 'type': '1', 'lng': 103.912522, 'lat': 28.009774, 'ptz_type': 3}, {'gb_id': '53060000411320013409_53060000411180000134', 'online': 1, 'name': '凉水沟砂石厂_2号车道_货箱识别', 'type': '2', 'lng': 103.91271, 'lat': 28.009735, 'ptz_type': 3}, {'gb_id': '53060000411320013410_53060000411180000134', 'online': 1, 'name': '凉水沟砂石厂_1号车道_货箱识别', 'type': '2', 'lng': 103.912507, 'lat': 28.009684, 'ptz_type': 3}], 'id': 83}, {'name': '云南省昭通市大关县寿山乡东坪砂石厂', 'area_name': '寿山', 'total': 6, 'online': 6, 'device': [{'gb_id': '53060000411320013804_53060000411180000138', 'online': 1, 'name': '东坪砂石厂_2号车道_货箱识别', 'type': '2', 'lng': 103.914257, 'lat': 27.938517, 'ptz_type': 3}, {'gb_id': '53060000411320013806_53060000411180000138', 'online': 1, 'name': '东坪砂石厂_1号车道出_车牌识别', 'type': '1,3', 'lng': 103.91444, 'lat': 27.938517, 'ptz_type': 3}, {'gb_id': '53060000411320013807_53060000411180000138', 'online': 1, 'name': '东坪砂石厂_2号车道出_车牌识别', 'type': '1,2', 'lng': 103.914327, 'lat': 27.938467, 'ptz_type': 3}, {'gb_id': '53060000411320013808_53060000411180000138', 'online': 1, 'name': '东坪砂石厂_1号车道进_车牌识别', 'type': '1,2,3', 'lng': 103.914299, 'lat': 27.938417, 'ptz_type': 3}, {'gb_id': '53060000411320013809_53060000411180000138', 'online': 1, 'name': '东坪砂石厂_1号_全域监控', 'type': '4', 'lng': 103.911507, 'lat': 27.940634, 'ptz_type': 1}, {'gb_id': '53060000411320013810_53060000411180000138', 'online': 1, 'name': '东坪砂石厂_2号车道进_车牌识别', 'type': '1', 'lng': 103.91444, 'lat': 27.938454, 'ptz_type': 3}], 'id': 79}], 'children': []}]}, {'name': '水富', 'code': '530681', 'parent_code': '5306', 'level': 3, 'fullcode': '530681000000', 'fullname': '水富市', 'total': 16, 'online': 16, 'point_device': [], 'children': [{'name': '向家坝', 'code': '530681100', 'parent_code': '530681', 'level': 4, 'fullcode': '530681100000', 'fullname': '向家坝镇', 'total': 11, 'online': 11, 'point_device': [{'name': '水富县金江石料开发有限公司新安水泥配料用砂岩矿', 'area_name': '向家坝', 'total': 6, 'online': 6, 'device': [{'gb_id': '53060000411320015201_53060000411180000152', 'online': 1, 'name': '金江石料_1号车道_货箱识别', 'type': '1', 'lng': 104.34518, 'lat': 28.615302, 'ptz_type': 3}, {'gb_id': '53060000411320015202_53060000411180000152', 'online': 1, 'name': '金江石料_1号车道进_车牌识别', 'type': '1,6', 'lng': 104.345139, 'lat': 28.615254, 'ptz_type': 3}, {'gb_id': '53060000411320015203_53060000411180000152', 'online': 1, 'name': '金江石料_1号车道出_车牌识别', 'type': '1', 'lng': 104.345185, 'lat': 28.615271, 'ptz_type': 3}, {'gb_id': '53060000411320015204_53060000411180000152', 'online': 1, 'name': '金江石料_2号_全域监控', 'type': '6', 'lng': 104.343199, 'lat': 28.614671, 'ptz_type': 1}, {'gb_id': '53060000411320015205_53060000411180000152', 'online': 1, 'name': '金江石料_1号_全域监控', 'type': '6', 'lng': 104.342996, 'lat': 28.614623, 'ptz_type': 1}, {'gb_id': '53060000411320015206_53060000411180000152', 'online': 1, 'name': '金江石料_3号_全域监控', 'type': '6', 'lng': 104.343199, 'lat': 28.614558, 'ptz_type': 1}], 'id': 124}, {'name': '水富大桥机砖厂水东页岩矿', 'area_name': '向家坝', 'total': 5, 'online': 5, 'device': [{'gb_id': '53060000411320015401_53060000411180000154', 'online': 1, 'name': '大桥机砖厂_1号_全域监控', 'type': '5', 'lng': 104.361263, 'lat': 28.565867, 'ptz_type': 1}, {'gb_id': '53060000411320015402_53060000411180000154', 'online': 1, 'name': '大桥机砖厂_2号_全域监控', 'type': '4', 'lng': 104.361756, 'lat': 28.565604, 'ptz_type': 1}, {'gb_id': '53060000411320015406_53060000411180000154', 'online': 1, 'name': '大桥机砖厂_1号车道出_车牌识别', 'type': '1', 'lng': 104.362883, 'lat': 28.567413, 'ptz_type': 3}, {'gb_id': '53060000411320015407_53060000411180000154', 'online': 1, 'name': '大桥机砖厂_1号车道_货箱识别', 'type': '2', 'lng': 104.362707, 'lat': 28.567398, 'ptz_type': 3}, {'gb_id': '53060000411320015408_53060000411180000154', 'online': 1, 'name': '大桥机砖厂_1号车道进_车牌识别', 'type': '1', 'lng': 104.362795, 'lat': 28.567367, 'ptz_type': 3}], 'id': 122}], 'children': []}, {'name': '太平', 'code': '530681101', 'parent_code': '530681', 'level': 4, 'fullcode': '530681101000', 'fullname': '太平镇', 'total': 5, 'online': 5, 'point_device': [{'name': '水富县华隆石业有限公司太平镇盐井村普通建筑材料用石灰岩矿', 'area_name': '太平', 'total': 5, 'online': 5, 'device': [{'gb_id': '53060000411320015301_53060000411180000153', 'online': 1, 'name': '华隆石业_2号车道_货箱识别', 'type': '2', 'lng': 104.1228, 'lat': 28.52419, 'ptz_type': 3}, {'gb_id': '53060000411320015302_53060000411180000153', 'online': 1, 'name': '华隆石业_1号车道出_车牌识别', 'type': '1', 'lng': 104.123003, 'lat': 28.524133, 'ptz_type': 3}, {'gb_id': '53060000411320015303_53060000411180000153', 'online': 1, 'name': '华隆石业_1号车道进_车牌识别', 'type': '1,3', 'lng': 104.123092, 'lat': 28.524011, 'ptz_type': 3}, {'gb_id': '53060000411320015304_53060000411180000153', 'online': 1, 'name': '华隆石业_1号车道_货箱识别', 'type': '2', 'lng': 104.122889, 'lat': 28.524022, 'ptz_type': 3}, {'gb_id': '53060000411320015306_53060000411180000153', 'online': 1, 'name': '华隆石业_2号车道进_车牌识别', 'type': '1', 'lng': 104.123092, 'lat': 28.523899, 'ptz_type': 3}], 'id': 123}], 'children': []}]}]}], 'status': '', 'details': None, 'request_id': ''}