DEBUG    phil:log.py:43  
 url:http://183.224.113.211:9001/api/gbserver/list
 请求参数: page=1&limit=10&keyword=&search_key=&area_code=&instance_id=&cam_type=
 账号：123
 密码：123456
 预期状态码：200
 实际返回状态码: 200
 实际返回值: {'code': 200, 'message': 'ok', 'data': [{'name': '云南昊龙实业集团有限公司乐红铅锌矿二分厂', 'area_name': '乐红', 'total': 0, 'online': 0, 'device': [{'gb_id': '53060000411320007401_53060000411180000074', 'online': 2, 'name': '鲁甸昊龙乐红二选厂_1号_厂区内监控', 'type': '', 'lng': 103.2307, 'lat': 27.19406, 'ptz_type': 3}, {'gb_id': '53060000411320007402_53060000411180000074', 'online': 2, 'name': '鲁甸昊龙乐红二选厂_1号_破碎机监控', 'type': '', 'lng': 103.229682, 'lat': 27.194269, 'ptz_type': 3}, {'gb_id': '53060000411320007403_53060000411180000074', 'online': 2, 'name': '鲁甸昊龙乐红二选厂_1号车道_货箱识别', 'type': '', 'lng': 103.227593, 'lat': 27.195423, 'ptz_type': 3}, {'gb_id': '53060000411320007404_53060000411180000074', 'online': 2, 'name': '鲁甸昊龙乐红二选厂_1号车道进_车牌识别', 'type': '', 'lng': 103.227617, 'lat': 27.195415, 'ptz_type': 3}, {'gb_id': '53060000411320007405_53060000411180000074', 'online': 2, 'name': '鲁甸昊龙乐红二选厂_2号车道出_车牌识别', 'type': '', 'lng': 103.227574, 'lat': 27.195431, 'ptz_type': 3}, {'gb_id': '53060000411320007406_53060000411180000074', 'online': 2, 'name': '鲁甸昊龙乐红二选厂_1号车道出_车牌识别', 'type': '', 'lng': 103.22755, 'lat': 27.195413, 'ptz_type': 3}, {'gb_id': '53060000411320007407_53060000411180000074', 'online': 2, 'name': '鲁甸昊龙乐红二选厂_2号车道进_车牌识别', 'type': '', 'lng': 103.227562, 'lat': 27.195408, 'ptz_type': 3}, {'gb_id': '53060000411320007408_53060000411180000074', 'online': 2, 'name': '鲁甸昊龙乐红二选厂_2号车道_货箱识别', 'type': '', 'lng': 103.227584, 'lat': 27.195404, 'ptz_type': 3}], 'id': 160}, {'name': '昭通市得云建材有限责任公司公鸡山采区', 'area_name': '北闸', 'total': 0, 'online': 0, 'device': [{'gb_id': '53060000411320003401_53060000411180000034', 'online': 1, 'name': '得云水泥_1号_破碎机监控', 'type': '', 'lng': 103.768851, 'lat': 27.439018, 'ptz_type': 3}, {'gb_id': '53060000411320003402_53060000411180000034', 'online': 1, 'name': '得云水泥_1号车道进_车牌识别', 'type': '', 'lng': 103.769623, 'lat': 27.436428, 'ptz_type': 3}, {'gb_id': '53060000411320003403_53060000411180000034', 'online': 1, 'name': '得云水泥_1号车道出_车牌识别', 'type': '', 'lng': 103.769387, 'lat': 27.436581, 'ptz_type': 3}, {'gb_id': '53060000411320003404_53060000411180000034', 'online': 1, 'name': '得云水泥_2号车道进_车牌识别', 'type': '', 'lng': 103.769495, 'lat': 27.436371, 'ptz_type': 3}, {'gb_id': '53060000411320003405_53060000411180000034', 'online': 1, 'name': '得云水泥_1号车道_货箱识别', 'type': '', 'lng': 103.769237, 'lat': 27.436466, 'ptz_type': 3}, {'gb_id': '53060000411320003406_53060000411180000034', 'online': 1, 'name': '得云水泥_2号车道出_车牌识别', 'type': '', 'lng': 103.769623, 'lat': 27.436295, 'ptz_type': 3}, {'gb_id': '53060000411320003407_53060000411180000034', 'online': 1, 'name': '得云水泥_2号车道_货箱识别', 'type': '', 'lng': 103.769366, 'lat': 27.436352, 'ptz_type': 3}, {'gb_id': '53060000411320003408_53060000411180000034', 'online': 1, 'name': '得云水泥_1号_全域监控', 'type': '', 'lng': 103.767134, 'lat': 27.44178, 'ptz_type': 1}, {'gb_id': '53060000411320003409_53060000411180000034', 'online': 1, 'name': '得云破碎近景', 'type': '', 'lng': 0, 'lat': 0, 'ptz_type': 3}, {'gb_id': '53060000411320003410_53060000411180000034', 'online': 1, 'name': '得云破碎全景', 'type': '', 'lng': 0, 'lat': 0, 'ptz_type': 3}, {'gb_id': '53060000411320003411_53060000411180000034', 'online': 1, 'name': '得云矿山', 'type': '', 'lng': 0, 'lat': 0, 'ptz_type': 1}, {'gb_id': '53060000411320003412_53060000411180000034', 'online': 1, 'name': '得云厂区全景', 'type': '', 'lng': 0, 'lat': 0, 'ptz_type': 1}, {'gb_id': '53060000411320003413_53060000411180000034', 'online': 1, 'name': 'IP Camera', 'type': '', 'lng': 0, 'lat': 0, 'ptz_type': 3}], 'id': 158}, {'name': '巧家县东坪镇采石场', 'area_name': '东坪', 'total': 0, 'online': 0, 'device': [{'gb_id': '53060000411320007701_53060000411180000077', 'online': 1, 'name': '东坪镇采石场_1号_破碎机监控', 'type': '', 'lng': 0, 'lat': 0, 'ptz_type': 3}, {'gb_id': '53060000411320007702_53060000411180000077', 'online': 1, 'name': '东坪镇采石场_2号_破碎机监控', 'type': '', 'lng': 0, 'lat': 0, 'ptz_type': 3}, {'gb_id': '53060000411320007703_53060000411180000077', 'online': 1, 'name': '东坪镇采石场_3号_破碎机监控', 'type': '', 'lng': 0, 'lat': 0, 'ptz_type': 3}, {'gb_id': '53060000411320007704_53060000411180000077', 'online': 1, 'name': '东坪镇采石场_1号车道进_车牌识别', 'type': '', 'lng': 0, 'lat': 0, 'ptz_type': 3}, {'gb_id': '53060000411320007705_53060000411180000077', 'online': 1, 'name': '东坪镇采石场_1号车道出_车牌识别', 'type': '', 'lng': 0, 'lat': 0, 'ptz_type': 3}, {'gb_id': '53060000411320007706_53060000411180000077', 'online': 1, 'name': '东坪镇采石场_2号车道_货箱识别', 'type': '', 'lng': 0, 'lat': 0, 'ptz_type': 3}, {'gb_id': '53060000411320007707_53060000411180000077', 'online': 1, 'name': '东坪镇采石场_2号车道出_车牌识别', 'type': '', 'lng': 0, 'lat': 0, 'ptz_type': 3}, {'gb_id': '53060000411320007708_53060000411180000077', 'online': 1, 'name': '东坪镇采石场_1号厂区内', 'type': '', 'lng': 0, 'lat': 0, 'ptz_type': 3}, {'gb_id': '53060000411320007709_53060000411180000077', 'online': 1, 'name': '东坪镇采石场_1号车道_货箱识别', 'type': '', 'lng': 0, 'lat': 0, 'ptz_type': 3}, {'gb_id': '53060000411320007710_53060000411180000077', 'online': 1, 'name': '东坪镇采石场_1号_全域监控', 'type': '', 'lng': 0, 'lat': 0, 'ptz_type': 1}], 'id': 156}, {'name': '盐津县滩头垚鑫采石场', 'area_name': '滩头', 'total': 0, 'online': 0, 'device': [{'gb_id': '53060000411320014701_53060000411180000147', 'online': 1, 'name': '垚鑫采石场_2号_厂区内监控', 'type': '', 'lng': 104.279997, 'lat': 28.27676, 'ptz_type': 3}, {'gb_id': '53060000411320014702_53060000411180000147', 'online': 1, 'name': '垚鑫采石场_1号_厂区内监控', 'type': '', 'lng': 104.280147, 'lat': 28.277724, 'ptz_type': 3}, {'gb_id': '53060000411320014703_53060000411180000147', 'online': 1, 'name': '垚鑫采石场_1号_破碎机监控', 'type': '', 'lng': 104.280705, 'lat': 28.277176, 'ptz_type': 3}, {'gb_id': '53060000411320014704_53060000411180000147', 'online': 1, 'name': '垚鑫采石场_1号车道出_车牌识别', 'type': '', 'lng': 104.281241, 'lat': 28.278631, 'ptz_type': 3}, {'gb_id': '53060000411320014705_53060000411180000147', 'online': 1, 'name': '垚鑫采石场_1号车道_货箱识别', 'type': '', 'lng': 104.281263, 'lat': 28.278574, 'ptz_type': 3}, {'gb_id': '53060000411320014706_53060000411180000147', 'online': 1, 'name': '垚鑫采石场_2号车道_货箱识别', 'type': '', 'lng': 104.281188, 'lat': 28.278593, 'ptz_type': 3}, {'gb_id': '53060000411320014707_53060000411180000147', 'online': 1, 'name': '垚鑫采石场_2号车道出_车牌识别', 'type': '', 'lng': 104.28132, 'lat': 28.278601, 'ptz_type': 3}, {'gb_id': '53060000411320014708_53060000411180000147', 'online': 1, 'name': '垚鑫采石场_1号车道进_车牌识别', 'type': '', 'lng': 104.281364, 'lat': 28.278578, 'ptz_type': 3}, {'gb_id': '53060000411320014709_53060000411180000147', 'online': 1, 'name': '壵鑫采石场_2号车道进_车牌识别', 'type': '', 'lng': 104.281307, 'lat': 28.27857, 'ptz_type': 3}, {'gb_id': '53060000411320014710_53060000411180000147', 'online': 1, 'name': '垚鑫采石场_2号_破碎机监控', 'type': '', 'lng': 0, 'lat': 0, 'ptz_type': 1}, {'gb_id': '53060000411320020701_53060000411180000207', 'online': 1, 'name': '垚鑫采石场_2号_全域监控', 'type': '', 'lng': 0, 'lat': 0, 'ptz_type': 1}, {'gb_id': '53060000411320020702_53060000411180000207', 'online': 1, 'name': '垚鑫采石场_1号_全域监控', 'type': '', 'lng': 0, 'lat': 0, 'ptz_type': 1}], 'id': 153}, {'name': '盐津天资化工有限责任公司盐津天资采石场', 'area_name': '庙坝', 'total': 0, 'online': 0, 'device': [{'gb_id': '53060000411320014501_53060000411180000145', 'online': 1, 'name': '天资采石厂_1号_全域监控', 'type': '', 'lng': 104.270305, 'lat': 27.961458, 'ptz_type': 1}, {'gb_id': '53060000411320014502_53060000411180000145', 'online': 1, 'name': '天资采石厂_1号_厂区监控', 'type': '', 'lng': 104.272169, 'lat': 27.960379, 'ptz_type': 3}, {'gb_id': '53060000411320014503_53060000411180000145', 'online': 1, 'name': '天资采石厂_2号_厂区监控', 'type': '', 'lng': 104.272388, 'lat': 27.960213, 'ptz_type': 3}, {'gb_id': '53060000411320014504_53060000411180000145', 'online': 1, 'name': '天资采石厂_1号_破碎机监控', 'type': '', 'lng': 104.2722, 'lat': 27.960158, 'ptz_type': 3}, {'gb_id': '53060000411320014505_53060000411180000145', 'online': 1, 'name': '天资采石厂_1号车道进_车牌识别', 'type': '', 'lng': 104.272373, 'lat': 27.958373, 'ptz_type': 3}, {'gb_id': '53060000411320014506_53060000411180000145', 'online': 1, 'name': '天资采石厂_1号车道_货箱识别', 'type': '', 'lng': 104.2722, 'lat': 27.95858, 'ptz_type': 3}, {'gb_id': '53060000411320014507_53060000411180000145', 'online': 1, 'name': '天资采石厂_1号车道出_车牌识别', 'type': '', 'lng': 104.272435, 'lat': 27.95829, 'ptz_type': 3}, {'gb_id': '53060000411320014508_53060000411180000145', 'online': 1, 'name': '天资采石厂_2号车道_货箱识别', 'type': '', 'lng': 104.272592, 'lat': 27.958788, 'ptz_type': 3}, {'gb_id': '53060000411320014509_53060000411180000145', 'online': 1, 'name': '天资采石厂_2号车道出_车牌识别', 'type': '', 'lng': 104.272717, 'lat': 27.958345, 'ptz_type': 3}, {'gb_id': '53060000411320014510_53060000411180000145', 'online': 1, 'name': '天资采石厂_2号车道进_车牌识别', 'type': '', 'lng': 104.272567, 'lat': 27.958681, 'ptz_type': 3}, {'gb_id': '53060000411320014511_53060000411180000145', 'online': 1, 'name': '天资采石厂_2号_破碎机监控', 'type': '', 'lng': 0, 'lat': 0, 'ptz_type': 3}], 'id': 152}, {'name': '锐华硅业(大关)有限公司', 'area_name': '吉利', 'total': 0, 'online': 0, 'device': [{'gb_id': '53060000411320020201_53060000411180000202', 'online': 1, 'name': '锐华硅业_2号车道进_车牌识别', 'type': '', 'lng': 104.023345, 'lat': 28.012093, 'ptz_type': 3}, {'gb_id': '53060000411320020202_53060000411180000202', 'online': 1, 'name': '锐华硅业_1号车道_货箱识别', 'type': '', 'lng': 104.023441, 'lat': 28.012024, 'ptz_type': 3}, {'gb_id': '53060000411320020203_53060000411180000202', 'online': 1, 'name': '锐华硅业_1号车道进_车牌识别', 'type': '', 'lng': 104.023654, 'lat': 28.012144, 'ptz_type': 3}, {'gb_id': '53060000411320020204_53060000411180000202', 'online': 1, 'name': '锐华硅业_1号车道出_车牌识别', 'type': '', 'lng': 104.023654, 'lat': 28.012076, 'ptz_type': 3}, {'gb_id': '53060000411320020205_53060000411180000202', 'online': 1, 'name': '锐华硅业_2号车道出_车牌识别', 'type': '', 'lng': 104.023924, 'lat': 28.012297, 'ptz_type': 3}, {'gb_id': '53060000411320020206_53060000411180000202', 'online': 1, 'name': '锐华硅业_2号车道_货箱识别', 'type': '', 'lng': 104.023866, 'lat': 28.01228, 'ptz_type': 3}], 'id': 151}, {'name': '大关县源盛矿业有限责任公司', 'area_name': '天星', 'total': 0, 'online': 0, 'device': [{'gb_id': '53060000411320020101_53060000411180000201', 'online': 1, 'name': '源盛矿业_1号车道进_车牌识别', 'type': '', 'lng': 104.024074, 'lat': 27.794079, 'ptz_type': 3}, {'gb_id': '53060000411320020102_53060000411180000201', 'online': 1, 'name': '源盛矿业_2号车道出_车牌识别', 'type': '', 'lng': 104.024091, 'lat': 27.793925, 'ptz_type': 3}, {'gb_id': '53060000411320020103_53060000411180000201', 'online': 1, 'name': '源盛矿业_1号车道_货箱识别', 'type': '', 'lng': 104.024091, 'lat': 27.793894, 'ptz_type': 3}, {'gb_id': '53060000411320020104_53060000411180000201', 'online': 1, 'name': '源盛矿业_2号车道_货箱识别', 'type': '', 'lng': 104.024091, 'lat': 27.793802, 'ptz_type': 3}, {'gb_id': '53060000411320020105_53060000411180000201', 'online': 1, 'name': '源盛矿业_1号车道出_车牌识别', 'type': '', 'lng': 104.0243, 'lat': 27.79394, 'ptz_type': 3}, {'gb_id': '53060000411320020106_53060000411180000201', 'online': 1, 'name': '源盛矿业_2号车道进_车牌识别', 'type': '', 'lng': 104.024317, 'lat': 27.793832, 'ptz_type': 3}], 'id': 150}, {'name': '镇雄新寨采石场', 'area_name': '乌峰', 'total': 0, 'online': 0, 'device': [{'gb_id': '53060000411320008501_53060000411320008501', 'online': 1, 'name': '乌峰新寨采石场_1号_厂区内监控', 'type': '', 'lng': 0, 'lat': 0, 'ptz_type': 3}, {'gb_id': '53060000411320008502_53060000411320008501', 'online': 1, 'name': '乌峰新寨采石场_1号_厂区内监控', 'type': '', 'lng': 0, 'lat': 0, 'ptz_type': 3}, {'gb_id': '53060000411320008503_53060000411320008501', 'online': 1, 'name': '乌峰新寨采石场_2号_厂区内监控', 'type': '', 'lng': 0, 'lat': 0, 'ptz_type': 3}, {'gb_id': '53060000411320008504_53060000411320008501', 'online': 1, 'name': '乌峰新寨采石场_1号_破碎机监控', 'type': '', 'lng': 0, 'lat': 0, 'ptz_type': 3}, {'gb_id': '53060000411320008505_53060000411320008501', 'online': 1, 'name': '乌峰新寨采石场_1号车道_货箱识别', 'type': '', 'lng': 0, 'lat': 0, 'ptz_type': 3}, {'gb_id': '53060000411320008506_53060000411320008501', 'online': 1, 'name': '乌峰新寨采石场_2号车道进_车牌识别', 'type': '', 'lng': 0, 'lat': 0, 'ptz_type': 3}, {'gb_id': '53060000411320008507_53060000411320008501', 'online': 1, 'name': '乌峰新寨采石场_1号车道进_车牌识别', 'type': '', 'lng': 0, 'lat': 0, 'ptz_type': 3}, {'gb_id': '53060000411320008508_53060000411320008501', 'online': 1, 'name': '乌峰新寨采石场_1号车道出_车牌识别', 'type': '', 'lng': 0, 'lat': 0, 'ptz_type': 3}, {'gb_id': '53060000411320008509_53060000411320008501', 'online': 1, 'name': '乌峰新寨采石场_2号车道出_车牌识别', 'type': '', 'lng': 0, 'lat': 0, 'ptz_type': 3}, {'gb_id': '53060000411320008510_53060000411320008501', 'online': 1, 'name': '乌峰新寨采石场_2号车道_货箱识别', 'type': '', 'lng': 0, 'lat': 0, 'ptz_type': 3}, {'gb_id': '53060000411320008511_53060000411320008501', 'online': 1, 'name': '乌峰新寨采石场_1号_全域监控', 'type': '', 'lng': 0, 'lat': 0, 'ptz_type': 1}], 'id': 147}, {'name': '威信县罗布镇岩通弯矿业有限公司岩通弯采石场', 'area_name': '罗布', 'total': 0, 'online': 0, 'device': [{'gb_id': '53060000411320012101_53060000411180000121', 'online': 2, 'name': '威信岩通弯采石场_1号车道出_车牌识别', 'type': '', 'lng': 0, 'lat': 0, 'ptz_type': 3}, {'gb_id': '53060000411320012102_53060000411180000121', 'online': 2, 'name': '威信岩通弯采石场_2号车道进_车牌识别', 'type': '', 'lng': 0, 'lat': 0, 'ptz_type': 3}, {'gb_id': '53060000411320012103_53060000411180000121', 'online': 2, 'name': '威信岩通弯采石场_2号车道出_车牌识别', 'type': '', 'lng': 0, 'lat': 0, 'ptz_type': 3}, {'gb_id': '53060000411320012104_53060000411180000121', 'online': 2, 'name': '威信岩通弯采石场_1号车道进_车牌识别', 'type': '', 'lng': 0, 'lat': 0, 'ptz_type': 3}, {'gb_id': '53060000411320012105_53060000411180000121', 'online': 2, 'name': '威信岩通弯采石场_1号车道_货箱识别', 'type': '', 'lng': 0, 'lat': 0, 'ptz_type': 3}, {'gb_id': '53060000411320012106_53060000411180000121', 'online': 2, 'name': '威信岩通弯采石场_2号车道_货箱识别', 'type': '', 'lng': 0, 'lat': 0, 'ptz_type': 3}], 'id': 144}, {'name': '威信县岩湾头建材有限公司岩湾头采石场', 'area_name': '扎西', 'total': 0, 'online': 0, 'device': [{'gb_id': '53060000411320012301_53060000411180000123', 'online': 1, 'name': '威信岩湾头采石场_1号_破碎机监控', 'type': '', 'lng': 0, 'lat': 0, 'ptz_type': 3}, {'gb_id': '53060000411320012302_53060000411180000123', 'online': 1, 'name': '威信岩湾头采石场_1号_厂区内监控', 'type': '', 'lng': 0, 'lat': 0, 'ptz_type': 3}, {'gb_id': '53060000411320012303_53060000411180000123', 'online': 1, 'name': '威信岩湾头采石场_1号_全域监控', 'type': '', 'lng': 0, 'lat': 0, 'ptz_type': 1}, {'gb_id': '53060000411320012304_53060000411180000123', 'online': 1, 'name': '威岩信湾头采石场_1号车道出_车牌识别', 'type': '', 'lng': 0, 'lat': 0, 'ptz_type': 3}, {'gb_id': '53060000411320012305_53060000411180000123', 'online': 1, 'name': '威信岩湾头采石场_1号车道进_车牌识别', 'type': '', 'lng': 0, 'lat': 0, 'ptz_type': 3}, {'gb_id': '53060000411320012306_53060000411180000123', 'online': 1, 'name': '威信岩湾头采石场_1号车道_货箱识别', 'type': '', 'lng': 0, 'lat': 0, 'ptz_type': 3}, {'gb_id': '53060000411320012307_53060000411180000123', 'online': 1, 'name': '威信岩湾头采石场_2号_厂区内监控', 'type': '', 'lng': 0, 'lat': 0, 'ptz_type': 1}, {'gb_id': '53060000411320012308_53060000411180000123', 'online': 1, 'name': '威信岩湾头采石场_4号_厂区内监控', 'type': '', 'lng': 0, 'lat': 0, 'ptz_type': 1}, {'gb_id': '53060000411320012309_53060000411180000123', 'online': 1, 'name': '威信岩湾头采石场_3号_厂区内监控', 'type': '', 'lng': 0, 'lat': 0, 'ptz_type': 1}, {'gb_id': '53060000411320012310_53060000411180000123', 'online': 1, 'name': '威信岩湾头采石场_5号_厂区内监控', 'type': '', 'lng': 0, 'lat': 0, 'ptz_type': 3}], 'id': 143}, {'name': '**威信丰磊矿业有限公司兴发采石场', 'area_name': '麟凤', 'total': 0, 'online': 0, 'device': [{'gb_id': '53060000411320012601_53060000411180000126', 'online': 1, 'name': '威信兴发采石场_1号_破碎机监控', 'type': '', 'lng': 104.843391, 'lat': 27.857576, 'ptz_type': 3}, {'gb_id': '53060000411320012602_53060000411180000126', 'online': 1, 'name': '威信兴发采石场_1号_厂区内监控', 'type': '', 'lng': 104.842997, 'lat': 27.857177, 'ptz_type': 3}, {'gb_id': '53060000411320012603_53060000411180000126', 'online': 1, 'name': '威信兴发采石场_2号车道进_车牌识别', 'type': '', 'lng': 104.843632, 'lat': 27.856819, 'ptz_type': 3}, {'gb_id': '53060000411320012604_53060000411180000126', 'online': 1, 'name': '威信兴发采石场_2号车道出_车牌识别', 'type': '', 'lng': 104.84356, 'lat': 27.856794, 'ptz_type': 3}, {'gb_id': '53060000411320012605_53060000411180000126', 'online': 1, 'name': '威信兴发采石场_1号车道出_车牌识别', 'type': '', 'lng': 104.843606, 'lat': 27.856813, 'ptz_type': 3}, {'gb_id': '53060000411320012606_53060000411180000126', 'online': 1, 'name': '威信兴发采石场_1号车道_货箱识别', 'type': '', 'lng': 104.843595, 'lat': 27.8568, 'ptz_type': 3}, {'gb_id': '53060000411320012607_53060000411180000126', 'online': 1, 'name': '威信兴发采石场_1号车道进_车牌识别', 'type': '', 'lng': 104.843617, 'lat': 27.856781, 'ptz_type': 3}, {'gb_id': '53060000411320012608_53060000411180000126', 'online': 1, 'name': '威信兴发采石场_2号车道_货箱识别', 'type': '', 'lng': 104.843577, 'lat': 27.856778, 'ptz_type': 3}, {'gb_id': '53060000411320012609_53060000411180000126', 'online': 1, 'name': '威信兴发采石场_1号_全域监控', 'type': '', 'lng': 104.843867, 'lat': 27.857988, 'ptz_type': 1}], 'id': 141}, {'name': '威信昭鹏建材有限公司昭鹏采石场', 'area_name': '双河', 'total': 0, 'online': 0, 'device': [{'gb_id': '53060000411320012701_53060000411180000127', 'online': 1, 'name': '威信昭鹏采石场_1号_厂区内监控', 'type': '', 'lng': 105.156553, 'lat': 27.857641, 'ptz_type': 3}, {'gb_id': '53060000411320012702_53060000411180000127', 'online': 1, 'name': '威信昭鹏采石场_1号_破碎机监控', 'type': '', 'lng': 105.157046, 'lat': 27.857921, 'ptz_type': 3}, {'gb_id': '53060000411320012703_53060000411180000127', 'online': 1, 'name': '威信昭鹏采石场_1号车道_货箱识别', 'type': '', 'lng': 105.153841, 'lat': 27.856924, 'ptz_type': 3}, {'gb_id': '53060000411320012704_53060000411180000127', 'online': 1, 'name': '威信昭鹏采石场_1号车道进_车牌识别', 'type': '', 'lng': 105.154, 'lat': 27.856862, 'ptz_type': 3}, {'gb_id': '53060000411320012705_53060000411180000127', 'online': 1, 'name': '威信昭鹏采石场_1号车道出_车牌识别', 'type': '', 'lng': 105.153897, 'lat': 27.856869, 'ptz_type': 3}, {'gb_id': '53060000411320012706_53060000411180000127', 'online': 1, 'name': '威信昭鹏采石场_1号_全域监控', 'type': '', 'lng': 105.155961, 'lat': 27.857734, 'ptz_type': 1}, {'gb_id': '53060000411320012707_53060000411180000127', 'online': 1, 'name': '威信昭鹏采石场_2号_破碎机监控', 'type': '', 'lng': 0, 'lat': 0, 'ptz_type': 1}, {'gb_id': '53060000411320016910_53060000411180000169', 'online': 1, 'name': '绥江鑫业矿业-2号厂区监控', 'type': '', 'lng': 0, 'lat': 0, 'ptz_type': 3}, {'gb_id': '53060000411320016911_53060000411180000169', 'online': 1, 'name': '绥江鑫业矿业-3号厂区监控', 'type': '', 'lng': 0, 'lat': 0, 'ptz_type': 3}], 'id': 140}, {'name': '*威信县中青建材贸易有限公司中青采石场', 'area_name': '双河', 'total': 0, 'online': 0, 'device': [{'gb_id': '53060000411320011901_53060000411180000119', 'online': 1, 'name': '威信中青采石场_1号_破碎机监控', 'type': '', 'lng': 105.164582, 'lat': 27.863841, 'ptz_type': 3}, {'gb_id': '53060000411320011902_53060000411180000119', 'online': 1, 'name': '威信中青采石场_1号_厂区内监控', 'type': '', 'lng': 105.164495, 'lat': 27.863266, 'ptz_type': 3}, {'gb_id': '53060000411320011903_53060000411180000119', 'online': 1, 'name': '威信中青采石场_1号车道_货箱识别', 'type': '', 'lng': 105.164221, 'lat': 27.862449, 'ptz_type': 3}, {'gb_id': '53060000411320011904_53060000411180000119', 'online': 1, 'name': '威信中青采石场_2号车道出_车牌识别', 'type': '', 'lng': 105.164278, 'lat': 27.862449, 'ptz_type': 3}, {'gb_id': '53060000411320011905_53060000411180000119', 'online': 1, 'name': '威信中青采石场_2号车道进_车牌识别', 'type': '', 'lng': 105.16422, 'lat': 27.862432, 'ptz_type': 3}, {'gb_id': '53060000411320011906_53060000411180000119', 'online': 1, 'name': '威信中青采石场_2号车道_货箱识别', 'type': '', 'lng': 105.164159, 'lat': 27.862474, 'ptz_type': 3}, {'gb_id': '53060000411320011907_53060000411180000119', 'online': 1, 'name': '威信中青采石场_1号车道出_车牌识别', 'type': '', 'lng': 105.164173, 'lat': 27.862439, 'ptz_type': 3}, {'gb_id': '53060000411320011908_53060000411180000119', 'online': 1, 'name': '威信中青采石场_1号车道进_车牌识别', 'type': '', 'lng': 105.164271, 'lat': 27.862423, 'ptz_type': 3}, {'gb_id': '53060000411320011909_53060000411180000119', 'online': 1, 'name': '威信中青采石场_1号_全域监控', 'type': '', 'lng': 105.164119, 'lat': 27.863255, 'ptz_type': 1}], 'id': 139}, {'name': '威信县鸿安建材有限公司李家山采石场', 'area_name': '长安', 'total': 0, 'online': 0, 'device': [{'gb_id': '53060000411320012201_53060000411180000122', 'online': 1, 'name': '威信李家山采石场_1号_厂区内监控', 'type': '', 'lng': 0, 'lat': 0, 'ptz_type': 3}, {'gb_id': '53060000411320012202_53060000411180000122', 'online': 1, 'name': '威信李家山采石场_1号_破碎机监控', 'type': '', 'lng': 0, 'lat': 0, 'ptz_type': 3}, {'gb_id': '53060000411320012203_53060000411180000122', 'online': 1, 'name': '威信李家山采石场_2号_破碎机监控', 'type': '', 'lng': 0, 'lat': 0, 'ptz_type': 3}, {'gb_id': '53060000411320012204_53060000411180000122', 'online': 1, 'name': '威信李家山采石场_1号车道出_车牌识别', 'type': '', 'lng': 0, 'lat': 0, 'ptz_type': 3}, {'gb_id': '53060000411320012205_53060000411180000122', 'online': 1, 'name': '威信李家山采石场_1号车道进_车牌识别', 'type': '', 'lng': 0, 'lat': 0, 'ptz_type': 3}, {'gb_id': '53060000411320012206_53060000411180000122', 'online': 1, 'name': '威信李家山采石场_2号车道出_车牌识别', 'type': '', 'lng': 0, 'lat': 0, 'ptz_type': 3}, {'gb_id': '53060000411320012207_53060000411180000122', 'online': 1, 'name': '威信李家山采石场_2号车道_货箱识别', 'type': '', 'lng': 0, 'lat': 0, 'ptz_type': 3}, {'gb_id': '53060000411320012208_53060000411180000122', 'online': 1, 'name': '威信李家山采石场_2号车道进_车牌识别', 'type': '', 'lng': 0, 'lat': 0, 'ptz_type': 3}, {'gb_id': '53060000411320012209_53060000411180000122', 'online': 1, 'name': '威信李家山采石场_1号车道_货箱识别', 'type': '', 'lng': 0, 'lat': 0, 'ptz_type': 3}, {'gb_id': '53060000411320012210_53060000411180000122', 'online': 1, 'name': '威信李家山采石场_1号_全域监控', 'type': '', 'lng': 0, 'lat': 0, 'ptz_type': 1}], 'id': 138}, {'name': '威信县龙洞沟矿业有限公司龙洞沟采石场', 'area_name': '庙沟', 'total': 0, 'online': 0, 'device': [{'gb_id': '65320000001311100000_53060000411180000125', 'online': 1, 'name': '威信龙洞沟采石场_1号_厂区内监控', 'type': '', 'lng': 0, 'lat': 0, 'ptz_type': 3}, {'gb_id': '65320000001311100001_53060000411180000125', 'online': 1, 'name': '威信龙洞沟采石场_1号_破碎机监控', 'type': '', 'lng': 0, 'lat': 0, 'ptz_type': 3}, {'gb_id': '65320000001311100002_53060000411180000125', 'online': 1, 'name': '威信龙洞沟采石场_1号车道进_车牌识别', 'type': '', 'lng': 0, 'lat': 0, 'ptz_type': 3}, {'gb_id': '65320000001311100003_53060000411180000125', 'online': 1, 'name': '威信龙洞沟采石场_1号车道出_车牌识别', 'type': '', 'lng': 0, 'lat': 0, 'ptz_type': 3}, {'gb_id': '65320000001311100004_53060000411180000125', 'online': 1, 'name': '威信龙洞沟采石场_2号车道进_车牌识别', 'type': '', 'lng': 0, 'lat': 0, 'ptz_type': 3}, {'gb_id': '65320000001311100005_53060000411180000125', 'online': 1, 'name': '威信龙洞沟采石场_1号车道_货箱识别', 'type': '', 'lng': 0, 'lat': 0, 'ptz_type': 3}, {'gb_id': '65320000001311100006_53060000411180000125', 'online': 1, 'name': '威信龙洞沟采石场_2号车道_货箱识别', 'type': '', 'lng': 0, 'lat': 0, 'ptz_type': 3}, {'gb_id': '65320000001311100007_53060000411180000125', 'online': 1, 'name': '威信龙洞沟采石场_2号车道出_车牌识别', 'type': '', 'lng': 0, 'lat': 0, 'ptz_type': 3}, {'gb_id': '65320000001311100008_53060000411180000125', 'online': 1, 'name': '威信龙洞沟采石场_1号_全域监控', 'type': '', 'lng': 0, 'lat': 0, 'ptz_type': 1}, {'gb_id': '65320000001311100009_53060000411180000125', 'online': 1, 'name': '威信龙洞沟采石场_2号_厂区内监控', 'type': '', 'lng': 0, 'lat': 0, 'ptz_type': 3}, {'gb_id': '65320000001311100010_53060000411180000125', 'online': 1, 'name': '威信龙洞沟采石场_3号_厂区内监控', 'type': '', 'lng': 0, 'lat': 0, 'ptz_type': 1}], 'id': 137}, {'name': '威信康志建材商贸有限公司大塘采石场', 'area_name': '旧城', 'total': 0, 'online': 0, 'device': [{'gb_id': '53060000411320012001_53060000411180000120', 'online': 1, 'name': '威信大塘采石场_1号_厂区内监控', 'type': '', 'lng': 105.062829, 'lat': 28.003663, 'ptz_type': 3}, {'gb_id': '53060000411320012002_53060000411180000120', 'online': 1, 'name': '威信大塘采石场_1号_破碎机监控', 'type': '', 'lng': 105.062793, 'lat': 28.003538, 'ptz_type': 3}, {'gb_id': '53060000411320012003_53060000411180000120', 'online': 1, 'name': '威信大塘采石场_1号车道_货箱识别', 'type': '', 'lng': 105.061128, 'lat': 28.006282, 'ptz_type': 3}, {'gb_id': '53060000411320012004_53060000411180000120', 'online': 1, 'name': '威信大塘采石场_2号车道进_车牌识别', 'type': '', 'lng': 105.061157, 'lat': 28.006231, 'ptz_type': 3}, {'gb_id': '53060000411320012005_53060000411180000120', 'online': 1, 'name': '威信大塘采石场_2号车道出_车牌识别', 'type': '', 'lng': 105.061302, 'lat': 28.006461, 'ptz_type': 3}, {'gb_id': '53060000411320012006_53060000411180000120', 'online': 1, 'name': '威信大塘采石场_1号车道进_车牌识别', 'type': '', 'lng': 105.061345, 'lat': 28.006359, 'ptz_type': 1}, {'gb_id': '53060000411320012007_53060000411180000120', 'online': 1, 'name': '威信大塘采石场_2号车道_货箱识别', 'type': '', 'lng': 105.061345, 'lat': 28.006231, 'ptz_type': 1}, {'gb_id': '53060000411320012008_53060000411180000120', 'online': 1, 'name': '威信大塘采石场_1号车道出_车牌识别', 'type': '', 'lng': 105.061215, 'lat': 28.006206, 'ptz_type': 3}, {'gb_id': '53060000411320012009_53060000411180000120', 'online': 1, 'name': '威信大塘采石场_1号_全域监控', 'type': '', 'lng': 105.062227, 'lat': 28.003858, 'ptz_type': 1}, {'gb_id': '53060000411320012010_53060000411180000120', 'online': 1, 'name': '威信大塘采石场_2号_全域监控', 'type': '', 'lng': 0, 'lat': 0, 'ptz_type': 1}], 'id': 135}, {'name': '威信得云建材有限责任公司坝头采石场', 'area_name': '扎西', 'total': 0, 'online': 0, 'device': [{'gb_id': '53060000411320012901_53060000411180000129', 'online': 1, 'name': '威信坝头采石场-1号_全域球机', 'type': '', 'lng': 0, 'lat': 0, 'ptz_type': 1}, {'gb_id': '53060000411320012902_53060000411180000129', 'online': 1, 'name': '威信坝头采石场_2号车道_货箱识别', 'type': '', 'lng': 0, 'lat': 0, 'ptz_type': 3}, {'gb_id': '53060000411320012903_53060000411180000129', 'online': 1, 'name': '威信坝头采石场_1号车道出_车牌识别', 'type': '', 'lng': 0, 'lat': 0, 'ptz_type': 3}, {'gb_id': '53060000411320012904_53060000411180000129', 'online': 1, 'name': '威信坝头采石场_1号车道进_车牌识别', 'type': '', 'lng': 0, 'lat': 0, 'ptz_type': 3}, {'gb_id': '53060000411320012905_53060000411180000129', 'online': 1, 'name': '威信坝头采石场_2号车道进_车牌识别', 'type': '', 'lng': 0, 'lat': 0, 'ptz_type': 3}, {'gb_id': '53060000411320012906_53060000411180000129', 'online': 1, 'name': '威信坝头采石场_1号_厂区内监控', 'type': '', 'lng': 0, 'lat': 0, 'ptz_type': 3}, {'gb_id': '53060000411320012907_53060000411180000129', 'online': 1, 'name': '威信坝头采石场_1号_破碎机监控', 'type': '', 'lng': 0, 'lat': 0, 'ptz_type': 3}, {'gb_id': '53060000411320012908_53060000411180000129', 'online': 1, 'name': '威信坝头采石场_1号车道_货箱识别', 'type': '', 'lng': 0, 'lat': 0, 'ptz_type': 3}, {'gb_id': '53060000411320012909_53060000411180000129', 'online': 1, 'name': '威信坝头采石场_2号车道出_车牌识别', 'type': '', 'lng': 0, 'lat': 0, 'ptz_type': 3}], 'id': 134}, {'name': '威信麟凤建筑材料有限公司木瓦房采石场', 'area_name': '麟凤', 'total': 0, 'online': 0, 'device': [{'gb_id': '53060000411320011501_53060000411180000115', 'online': 1, 'name': '威信麟凤木瓦房采石场_1号_破碎机监控', 'type': '', 'lng': 104.904049, 'lat': 27.832405, 'ptz_type': 3}, {'gb_id': '53060000411320011502_53060000411180000115', 'online': 1, 'name': '威信麟凤木瓦房采石场_1号_厂区内监控', 'type': '', 'lng': 104.904147, 'lat': 27.832305, 'ptz_type': 3}, {'gb_id': '53060000411320011503_53060000411180000115', 'online': 1, 'name': '威信麟凤木瓦房采石场_2号车道进_车牌识别', 'type': '', 'lng': 104.902822, 'lat': 27.83258, 'ptz_type': 3}, {'gb_id': '53060000411320011504_53060000411180000115', 'online': 1, 'name': '威信麟凤木瓦房采石场_2号车道_货箱识别', 'type': '', 'lng': 104.903005, 'lat': 27.832542, 'ptz_type': 3}, {'gb_id': '53060000411320011505_53060000411180000115', 'online': 1, 'name': '威信麟凤木瓦房采石场_1号车道_货箱识别', 'type': '', 'lng': 104.903104, 'lat': 27.832517, 'ptz_type': 3}, {'gb_id': '53060000411320011506_53060000411180000115', 'online': 1, 'name': '威信麟凤木瓦房采石场_1号车道出_车牌识别', 'type': '', 'lng': 104.902779, 'lat': 27.83253, 'ptz_type': 3}, {'gb_id': '53060000411320011507_53060000411180000115', 'online': 1, 'name': '威信麟凤木瓦房采石场_1号车道进_车牌识别', 'type': '', 'lng': 104.902878, 'lat': 27.83248, 'ptz_type': 3}, {'gb_id': '53060000411320011508_53060000411180000115', 'online': 1, 'name': '威信了凤木瓦房采石场_2号车道出_车牌识别', 'type': '', 'lng': 104.902991, 'lat': 27.83248, 'ptz_type': 3}, {'gb_id': '53060000411320011509_53060000411180000115', 'online': 2, 'name': '威信麟凤木瓦房采石场_1号_全域监', 'type': '', 'lng': 104.904866, 'lat': 27.833004, 'ptz_type': 1}], 'id': 133}, {'name': '威信茂源建筑材料有限责任公司茂源采石场', 'area_name': '扎西', 'total': 0, 'online': 0, 'device': [{'gb_id': '53060000411320011401_53060000411180000114', 'online': 1, 'name': '威信茂源建材_1号_厂区内监控', 'type': '', 'lng': 0, 'lat': 0, 'ptz_type': 3}, {'gb_id': '53060000411320011402_53060000411180000114', 'online': 1, 'name': '威信茂源建材_1号_破碎机监控', 'type': '', 'lng': 0, 'lat': 0, 'ptz_type': 3}, {'gb_id': '53060000411320011403_53060000411180000114', 'online': 1, 'name': '威信茂源建材_2号_厂区内监控', 'type': '', 'lng': 0, 'lat': 0, 'ptz_type': 3}, {'gb_id': '53060000411320011404_53060000411180000114', 'online': 1, 'name': '威信茂源建材_2号_破碎机监控', 'type': '', 'lng': 0, 'lat': 0, 'ptz_type': 3}, {'gb_id': '53060000411320011405_53060000411180000114', 'online': 1, 'name': '威信茂源建材_2号车道出_车牌识别', 'type': '', 'lng': 0, 'lat': 0, 'ptz_type': 3}, {'gb_id': '53060000411320011406_53060000411180000114', 'online': 1, 'name': '威信茂源建材_1号车道出_车牌识别', 'type': '', 'lng': 0, 'lat': 0, 'ptz_type': 3}, {'gb_id': '53060000411320011407_53060000411180000114', 'online': 1, 'name': '威信茂源建材_2号车道_货箱识别', 'type': '', 'lng': 0, 'lat': 0, 'ptz_type': 3}, {'gb_id': '53060000411320011408_53060000411180000114', 'online': 1, 'name': '威信茂源建材_1号车道_货箱识别', 'type': '', 'lng': 0, 'lat': 0, 'ptz_type': 3}, {'gb_id': '53060000411320011409_53060000411180000114', 'online': 1, 'name': '威信茂源建材_2号车道进_车牌识别', 'type': '', 'lng': 0, 'lat': 0, 'ptz_type': 3}, {'gb_id': '53060000411320011410_53060000411180000114', 'online': 1, 'name': '威信茂源建材_1号_全域监控', 'type': '', 'lng': 0, 'lat': 0, 'ptz_type': 1}, {'gb_id': '53060000411320011411_53060000411180000114', 'online': 1, 'name': '威信茂源建材_1号车道进_车牌识别', 'type': '', 'lng': 0, 'lat': 0, 'ptz_type': 3}], 'id': 132}, {'name': '威信隆坤建材商贸有限公司穿山洞采石场', 'area_name': '扎西', 'total': 0, 'online': 0, 'device': [{'gb_id': '53060000411320011701_53060000411180000117', 'online': 1, 'name': '威信穿山洞采石场_1号_破碎机监控', 'type': '', 'lng': 105.019513, 'lat': 27.818007, 'ptz_type': 3}, {'gb_id': '53060000411320011702_53060000411180000117', 'online': 1, 'name': '威信穿山洞采石场_1号_厂区内监控', 'type': '', 'lng': 105.019942, 'lat': 27.818386, 'ptz_type': 3}, {'gb_id': '53060000411320011703_53060000411180000117', 'online': 1, 'name': '威信穿山洞采石场_1号车道_货箱识别', 'type': '', 'lng': 105.018607, 'lat': 27.817249, 'ptz_type': 3}, {'gb_id': '53060000411320011704_53060000411180000117', 'online': 1, 'name': '威信穿山洞采石场_2号厂区', 'type': '', 'lng': 105.018611, 'lat': 27.817323, 'ptz_type': 3}, {'gb_id': '53060000411320011705_53060000411180000117', 'online': 1, 'name': '威信穿山洞采石场_1号车道出_车牌识别', 'type': '', 'lng': 105.018526, 'lat': 27.817292, 'ptz_type': 3}, {'gb_id': '53060000411320011706_53060000411180000117', 'online': 1, 'name': '威信穿山洞采石场_1号车道进_车牌识别', 'type': '', 'lng': 105.01951, 'lat': 27.818393, 'ptz_type': 3}, {'gb_id': '53060000411320011707_53060000411180000117', 'online': 1, 'name': '威信穿山洞采石场_1号_全域监控', 'type': '', 'lng': 0, 'lat': 0, 'ptz_type': 1}, {'gb_id': '53060000411320011708_53060000411180000117', 'online': 1, 'name': '威信穿山洞采石场_2号车道出_车牌识别', 'type': '', 'lng': 0, 'lat': 0, 'ptz_type': 3}, {'gb_id': '53060000411320011709_53060000411180000117', 'online': 1, 'name': '威信穿山洞采石场_2号车道进_车牌识别', 'type': '', 'lng': 0, 'lat': 0, 'ptz_type': 3}, {'gb_id': '53060000411320011710_53060000411180000117', 'online': 1, 'name': '威信穿山洞采石场_2号车道_货箱识别', 'type': '', 'lng': 0, 'lat': 0, 'ptz_type': 3}], 'id': 131}, {'name': '威信县宏誉商贸有限责任公司瓦厂头采石场', 'area_name': '三桃', 'total': 0, 'online': 0, 'device': [{'gb_id': '53060000411320011801_53060000411180000118', 'online': 1, 'name': '威信瓦厂头采石场_1号_破碎机监控', 'type': '', 'lng': 104.97683, 'lat': 27.939657, 'ptz_type': 3}, {'gb_id': '53060000411320011802_53060000411180000118', 'online': 1, 'name': '威信瓦厂头采石场_2号_破碎机监控', 'type': '', 'lng': 104.977097, 'lat': 27.939904, 'ptz_type': 3}, {'gb_id': '53060000411320011803_53060000411180000118', 'online': 1, 'name': '威信瓦厂头采石场_1号_厂区内监控', 'type': '', 'lng': 104.976614, 'lat': 27.940139, 'ptz_type': 3}, {'gb_id': '53060000411320011804_53060000411180000118', 'online': 1, 'name': '威信瓦厂头采石场_1号车道进_车牌识别', 'type': '', 'lng': 104.977567, 'lat': 27.939141, 'ptz_type': 3}, {'gb_id': '53060000411320011805_53060000411180000118', 'online': 1, 'name': '威信瓦厂头采石场_2号车道进_车牌识别', 'type': '', 'lng': 104.97744, 'lat': 27.939074, 'ptz_type': 3}, {'gb_id': '53060000411320011806_53060000411180000118', 'online': 1, 'name': '威信瓦厂头采石场_1号车道出_车牌识别', 'type': '', 'lng': 104.977617, 'lat': 27.939108, 'ptz_type': 3}, {'gb_id': '53060000411320011807_53060000411180000118', 'online': 1, 'name': '威信瓦厂头采石场_1号车道_货箱识别', 'type': '', 'lng': 104.977541, 'lat': 27.939074, 'ptz_type': 3}, {'gb_id': '53060000411320011808_53060000411180000118', 'online': 1, 'name': '威信瓦厂头采石场_2号车道_货箱识别', 'type': '', 'lng': 104.977516, 'lat': 27.939029, 'ptz_type': 3}, {'gb_id': '53060000411320011809_53060000411180000118', 'online': 1, 'name': '威信瓦厂头采石场_2号车道出_车牌识别', 'type': '', 'lng': 104.977351, 'lat': 27.939051, 'ptz_type': 3}, {'gb_id': '53060000411320011810_53060000411180000118', 'online': 1, 'name': '威信瓦厂头采石场_1号_全域监控', 'type': '', 'lng': 104.975891, 'lat': 27.940498, 'ptz_type': 1}], 'id': 128}, {'name': '威信宏顺建材有限公司宏顺采石场', 'area_name': '扎西', 'total': 0, 'online': 0, 'device': [{'gb_id': '65320000001311100000_53060000411180000116', 'online': 1, 'name': '威信宏顺建材有限公司_1号_厂区内监控', 'type': '', 'lng': 0, 'lat': 0, 'ptz_type': 3}, {'gb_id': '65320000001311100001_53060000411180000116', 'online': 1, 'name': '威信宏顺建材有限公司_1号_破碎机监控', 'type': '', 'lng': 0, 'lat': 0, 'ptz_type': 3}, {'gb_id': '65320000001311100002_53060000411180000116', 'online': 1, 'name': '威信宏顺建材有限公司_1号车道_货箱识别', 'type': '', 'lng': 0, 'lat': 0, 'ptz_type': 3}, {'gb_id': '65320000001311100003_53060000411180000116', 'online': 1, 'name': '威信宏顺建材有限公司_1号车道出_车牌识别', 'type': '', 'lng': 0, 'lat': 0, 'ptz_type': 3}, {'gb_id': '65320000001311100004_53060000411180000116', 'online': 1, 'name': '威信宏顺建材有限公司_1号车道进_车牌识别', 'type': '', 'lng': 0, 'lat': 0, 'ptz_type': 3}, {'gb_id': '65320000001311100005_53060000411180000116', 'online': 1, 'name': '宏顺建材有限公司_1号_全域监控', 'type': '', 'lng': 0, 'lat': 0, 'ptz_type': 1}, {'gb_id': '65320000001311100006_53060000411180000116', 'online': 1, 'name': 'Camera 01', 'type': '', 'lng': 0, 'lat': 0, 'ptz_type': 1}, {'gb_id': '65320000001311100007_53060000411180000116', 'online': 1, 'name': 'Camera 01', 'type': '', 'lng': 0, 'lat': 0, 'ptz_type': 1}], 'id': 127}, {'name': '威信搏通商贸有限公司梅岭采石场', 'area_name': '扎西', 'total': 0, 'online': 0, 'device': [{'gb_id': '53060000411320012401_53060000411180000124', 'online': 1, 'name': '威信梅岭采石场_1号_破碎机监控', 'type': '', 'lng': 104.965774, 'lat': 27.838625, 'ptz_type': 3}, {'gb_id': '53060000411320012402_53060000411180000124', 'online': 1, 'name': '威信梅岭采石场_1号_厂区内监控', 'type': '', 'lng': 104.966265, 'lat': 27.838446, 'ptz_type': 3}, {'gb_id': '53060000411320012403_53060000411180000124', 'online': 1, 'name': '威信梅岭采石场_2号车道进_车牌识别', 'type': '', 'lng': 104.965832, 'lat': 27.838172, 'ptz_type': 3}, {'gb_id': '53060000411320012404_53060000411180000124', 'online': 1, 'name': '威信梅岭采石场_1号车道进_车牌识别', 'type': '', 'lng': 104.965745, 'lat': 27.838121, 'ptz_type': 3}, {'gb_id': '53060000411320012405_53060000411180000124', 'online': 1, 'name': '威信梅岭采石场_2号车道_货箱识别', 'type': '', 'lng': 104.965798, 'lat': 27.838148, 'ptz_type': 3}, {'gb_id': '53060000411320012406_53060000411180000124', 'online': 1, 'name': '威信梅岭采石场_2号车道出_车牌识别', 'type': '', 'lng': 104.965766, 'lat': 27.838129, 'ptz_type': 3}, {'gb_id': '53060000411320012407_53060000411180000124', 'online': 1, 'name': '威信梅岭采石场_1号车道出_车牌识别', 'type': '', 'lng': 104.965786, 'lat': 27.838129, 'ptz_type': 3}, {'gb_id': '53060000411320012408_53060000411180000124', 'online': 1, 'name': '威信梅岭采石场_1号车道_货箱识别', 'type': '', 'lng': 104.965768, 'lat': 27.838104, 'ptz_type': 3}], 'id': 126}, {'name': '威信县柏安矿业有限公司翅管岩采石场', 'area_name': '麟凤', 'total': 0, 'online': 0, 'device': [{'gb_id': '53060000411320012801_53060000411180000128', 'online': 1, 'name': '威信翅管岩采石场_1号_破碎机监控', 'type': '', 'lng': 0, 'lat': 0, 'ptz_type': 3}, {'gb_id': '53060000411320012802_53060000411180000128', 'online': 1, 'name': '威信翅管岩采石场_1号_厂区内监控', 'type': '', 'lng': 0, 'lat': 0, 'ptz_type': 3}, {'gb_id': '53060000411320012803_53060000411180000128', 'online': 1, 'name': '威信翅管岩采石场_2号车道出_车牌识别', 'type': '', 'lng': 0, 'lat': 0, 'ptz_type': 3}, {'gb_id': '53060000411320012804_53060000411180000128', 'online': 1, 'name': '威信翅管岩采石场_2号车道进_车牌识别', 'type': '', 'lng': 0, 'lat': 0, 'ptz_type': 3}, {'gb_id': '53060000411320012805_53060000411180000128', 'online': 1, 'name': '威信翅管岩采石场_1号车道_货箱识别', 'type': '', 'lng': 0, 'lat': 0, 'ptz_type': 3}, {'gb_id': '53060000411320012806_53060000411180000128', 'online': 1, 'name': '威信翅管岩采石场_2号车道_货箱识别', 'type': '', 'lng': 0, 'lat': 0, 'ptz_type': 3}, {'gb_id': '53060000411320012807_53060000411180000128', 'online': 1, 'name': '威信翅管岩采石场_1号车道出_车牌识别', 'type': '', 'lng': 0, 'lat': 0, 'ptz_type': 3}, {'gb_id': '53060000411320012808_53060000411180000128', 'online': 1, 'name': '威信翅管岩采石场_1号车道进_车牌识别', 'type': '', 'lng': 0, 'lat': 0, 'ptz_type': 3}, {'gb_id': '53060000411320012809_53060000411180000128', 'online': 1, 'name': '威信翅管岩采石场_1号_全域监控', 'type': '', 'lng': 0, 'lat': 0, 'ptz_type': 1}], 'id': 125}, {'name': '水富县金江石料开发有限公司新安水泥配料用砂岩矿', 'area_name': '向家坝', 'total': 0, 'online': 0, 'device': [{'gb_id': '53060000411320015201_53060000411180000152', 'online': 1, 'name': '金江石料_1号车道_货箱识别', 'type': '1', 'lng': 104.34518, 'lat': 28.615302, 'ptz_type': 3}, {'gb_id': '53060000411320015202_53060000411180000152', 'online': 1, 'name': '金江石料_1号车道进_车牌识别', 'type': '6,1', 'lng': 104.345139, 'lat': 28.615254, 'ptz_type': 3}, {'gb_id': '53060000411320015203_53060000411180000152', 'online': 1, 'name': '金江石料_1号车道出_车牌识别', 'type': '1', 'lng': 104.345185, 'lat': 28.615271, 'ptz_type': 3}, {'gb_id': '53060000411320015204_53060000411180000152', 'online': 1, 'name': '金江石料_2号_全域监控', 'type': '6', 'lng': 104.343199, 'lat': 28.614671, 'ptz_type': 1}, {'gb_id': '53060000411320015205_53060000411180000152', 'online': 1, 'name': '金江石料_1号_全域监控', 'type': '6', 'lng': 104.342996, 'lat': 28.614623, 'ptz_type': 1}, {'gb_id': '53060000411320015206_53060000411180000152', 'online': 1, 'name': '金江石料_3号_全域监控', 'type': '6', 'lng': 104.343199, 'lat': 28.614558, 'ptz_type': 1}], 'id': 124}, {'name': '水富县华隆石业有限公司太平镇盐井村普通建筑材料用石灰岩矿', 'area_name': '太平', 'total': 0, 'online': 0, 'device': [{'gb_id': '53060000411320015301_53060000411180000153', 'online': 1, 'name': '华隆石业_2号车道_货箱识别', 'type': '2', 'lng': 104.1228, 'lat': 28.52419, 'ptz_type': 3}, {'gb_id': '53060000411320015302_53060000411180000153', 'online': 1, 'name': '华隆石业_1号车道出_车牌识别', 'type': '1', 'lng': 104.123003, 'lat': 28.524133, 'ptz_type': 3}, {'gb_id': '53060000411320015303_53060000411180000153', 'online': 1, 'name': '华隆石业_1号车道进_车牌识别', 'type': '3,1', 'lng': 104.123092, 'lat': 28.524011, 'ptz_type': 3}, {'gb_id': '53060000411320015304_53060000411180000153', 'online': 1, 'name': '华隆石业_1号车道_货箱识别', 'type': '2', 'lng': 104.122889, 'lat': 28.524022, 'ptz_type': 3}, {'gb_id': '53060000411320015305_53060000411180000153', 'online': 1, 'name': '华隆石业_2号车道出_车牌识别', 'type': '', 'lng': 104.122952, 'lat': 28.523921, 'ptz_type': 3}, {'gb_id': '53060000411320015306_53060000411180000153', 'online': 1, 'name': '华隆石业_2号车道进_车牌识别', 'type': '1', 'lng': 104.123092, 'lat': 28.523899, 'ptz_type': 3}, {'gb_id': '53060000411320015307_53060000411180000153', 'online': 1, 'name': '华隆石业_1号_厂区内监控', 'type': '', 'lng': 104.120578, 'lat': 28.525394, 'ptz_type': 3}, {'gb_id': '53060000411320015308_53060000411180000153', 'online': 1, 'name': '华隆石业_1号_破碎机监控', 'type': '', 'lng': 104.120844, 'lat': 28.525394, 'ptz_type': 3}, {'gb_id': '53060000411320015309_53060000411180000153', 'online': 1, 'name': '华隆石业_2号_厂区内监控', 'type': '', 'lng': 104.120603, 'lat': 28.525338, 'ptz_type': 3}, {'gb_id': '53060000411320015310_53060000411180000153', 'online': 1, 'name': '华隆石业_1号_全域监控', 'type': '', 'lng': 104.118331, 'lat': 28.528104, 'ptz_type': 1}], 'id': 123}, {'name': '水富大桥机砖厂水东页岩矿', 'area_name': '向家坝', 'total': 0, 'online': 0, 'device': [{'gb_id': '53060000411320015401_53060000411180000154', 'online': 1, 'name': '大桥机砖厂_1号_全域监控', 'type': '5', 'lng': 104.361263, 'lat': 28.565867, 'ptz_type': 1}, {'gb_id': '53060000411320015402_53060000411180000154', 'online': 1, 'name': '大桥机砖厂_2号_全域监控', 'type': '4', 'lng': 104.361756, 'lat': 28.565604, 'ptz_type': 1}, {'gb_id': '53060000411320015403_53060000411180000154', 'online': 1, 'name': '大桥机砖厂_1号_厂区内监控', 'type': '', 'lng': 104.361192, 'lat': 28.565604, 'ptz_type': 3}, {'gb_id': '53060000411320015404_53060000411180000154', 'online': 1, 'name': '大桥机砖厂_1号_破碎机监控', 'type': '', 'lng': 104.361386, 'lat': 28.565697, 'ptz_type': 3}, {'gb_id': '53060000411320015405_53060000411180000154', 'online': 1, 'name': '大桥机砖厂_2号_破碎机监控', 'type': '', 'lng': 104.361404, 'lat': 28.56562, 'ptz_type': 3}, {'gb_id': '53060000411320015406_53060000411180000154', 'online': 1, 'name': '大桥机砖厂_1号车道出_车牌识别', 'type': '1', 'lng': 104.362883, 'lat': 28.567413, 'ptz_type': 3}, {'gb_id': '53060000411320015407_53060000411180000154', 'online': 1, 'name': '大桥机砖厂_1号车道_货箱识别', 'type': '2', 'lng': 104.362707, 'lat': 28.567398, 'ptz_type': 3}, {'gb_id': '53060000411320015408_53060000411180000154', 'online': 1, 'name': '大桥机砖厂_1号车道进_车牌识别', 'type': '1', 'lng': 104.362795, 'lat': 28.567367, 'ptz_type': 3}], 'id': 122}, {'name': '昭通市永盛经贸有限公司石灰岩矿', 'area_name': '盘河', 'total': 0, 'online': 0, 'device': [{'gb_id': '53060000411320004701_53060000411180000047', 'online': 1, 'name': '永盛建材_1号_厂区内监控', 'type': '', 'lng': 0, 'lat': 0, 'ptz_type': 3}, {'gb_id': '53060000411320004702_53060000411180000047', 'online': 1, 'name': '永盛建材_1号_破碎机监控', 'type': '', 'lng': 0, 'lat': 0, 'ptz_type': 3}, {'gb_id': '53060000411320004703_53060000411180000047', 'online': 1, 'name': '永盛建材_1号车道_货箱识别', 'type': '', 'lng': 0, 'lat': 0, 'ptz_type': 3}, {'gb_id': '53060000411320004704_53060000411180000047', 'online': 1, 'name': '永盛建材_1号车道出_车牌识别', 'type': '', 'lng': 0, 'lat': 0, 'ptz_type': 3}, {'gb_id': '53060000411320004705_53060000411180000047', 'online': 1, 'name': '永盛建材_2号车道_货箱识别', 'type': '', 'lng': 0, 'lat': 0, 'ptz_type': 3}, {'gb_id': '53060000411320004706_53060000411180000047', 'online': 1, 'name': '永盛建材_1号车道进_车牌识别', 'type': '', 'lng': 0, 'lat': 0, 'ptz_type': 3}, {'gb_id': '53060000411320004707_53060000411180000047', 'online': 1, 'name': '永盛建材_2号车道进_车牌识别', 'type': '', 'lng': 0, 'lat': 0, 'ptz_type': 3}, {'gb_id': '53060000411320004708_53060000411180000047', 'online': 1, 'name': '永盛建材_2号车道出_车牌识别', 'type': '', 'lng': 0, 'lat': 0, 'ptz_type': 3}, {'gb_id': '53060000411320004709_53060000411180000047', 'online': 1, 'name': '永盛建材_1号_全域监控', 'type': '', 'lng': 0, 'lat': 0, 'ptz_type': 1}, {'gb_id': '53060000411320004710_53060000411180000047', 'online': 1, 'name': '永盛建材_2号_全域监控', 'type': '', 'lng': 0, 'lat': 0, 'ptz_type': 1}, {'gb_id': '53060000411320004711_53060000411180000047', 'online': 1, 'name': 'IP Camera', 'type': '', 'lng': 0, 'lat': 0, 'ptz_type': 3}], 'id': 121}, {'name': '昭通市昭阳区博昌砂石料有限公司石灰岩矿', 'area_name': '乐居', 'total': 0, 'online': 0, 'device': [{'gb_id': '53060000411320005501_53060000411180000055', 'online': 1, 'name': '博昌砂石_1号_破碎机监控', 'type': '', 'lng': 0, 'lat': 0, 'ptz_type': 3}, {'gb_id': '53060000411320005502_53060000411180000055', 'online': 1, 'name': '博昌砂石_1号_厂区内监控', 'type': '', 'lng': 0, 'lat': 0, 'ptz_type': 3}, {'gb_id': '53060000411320005503_53060000411180000055', 'online': 1, 'name': '博昌砂石_2号_厂区内监控', 'type': '', 'lng': 0, 'lat': 0, 'ptz_type': 3}, {'gb_id': '53060000411320005504_53060000411180000055', 'online': 1, 'name': '博昌砂石_4号_厂区内监控', 'type': '', 'lng': 0, 'lat': 0, 'ptz_type': 3}, {'gb_id': '53060000411320005505_53060000411180000055', 'online': 1, 'name': '博昌砂石_2号_破碎机监控', 'type': '', 'lng': 0, 'lat': 0, 'ptz_type': 3}, {'gb_id': '53060000411320005506_53060000411180000055', 'online': 1, 'name': '博昌砂石_3号_厂区内监控', 'type': '', 'lng': 0, 'lat': 0, 'ptz_type': 3}, {'gb_id': '53060000411320005507_53060000411180000055', 'online': 1, 'name': '博昌砂石_3号_破碎机监控', 'type': '', 'lng': 0, 'lat': 0, 'ptz_type': 3}, {'gb_id': '53060000411320005508_53060000411180000055', 'online': 1, 'name': '博昌砂石_1号车道出_车牌识别', 'type': '', 'lng': 0, 'lat': 0, 'ptz_type': 3}, {'gb_id': '53060000411320005509_53060000411180000055', 'online': 1, 'name': '博昌砂石_2号车道出_车牌识别', 'type': '', 'lng': 0, 'lat': 0, 'ptz_type': 3}, {'gb_id': '53060000411320005510_53060000411180000055', 'online': 1, 'name': '博昌砂石_1号车道进_车牌识别', 'type': '', 'lng': 0, 'lat': 0, 'ptz_type': 3}, {'gb_id': '53060000411320005511_53060000411180000055', 'online': 1, 'name': '博昌砂石_2号车道进_车牌识别', 'type': '', 'lng': 0, 'lat': 0, 'ptz_type': 3}, {'gb_id': '53060000411320005512_53060000411180000055', 'online': 1, 'name': '博昌砂石_1号车道_货箱识别', 'type': '', 'lng': 0, 'lat': 0, 'ptz_type': 3}, {'gb_id': '53060000411320005513_53060000411180000055', 'online': 1, 'name': '博昌砂石_2号车道_货箱识别', 'type': '', 'lng': 0, 'lat': 0, 'ptz_type': 3}, {'gb_id': '53060000411320005514_53060000411180000055', 'online': 1, 'name': '博昌砂石_1号_全域球机', 'type': '', 'lng': 0, 'lat': 0, 'ptz_type': 1}, {'gb_id': '53060000411320005515_53060000411180000055', 'online': 2, 'name': '博昌砂石_2号_全域球机', 'type': '', 'lng': 0, 'lat': 0, 'ptz_type': 1}, {'gb_id': '53060000411320005516_53060000411180000055', 'online': 2, 'name': '博昌砂石_3号_全域球机', 'type': '', 'lng': 0, 'lat': 0, 'ptz_type': 1}], 'id': 120}, {'name': '昭通市宜通页岩制砖有限公司页岩矿', 'area_name': '北闸', 'total': 0, 'online': 0, 'device': [{'gb_id': '53060000411320006001_53060000411180000060', 'online': 1, 'name': '宜通砖厂_1号_厂区内监控', 'type': '', 'lng': 0, 'lat': 0, 'ptz_type': 3}, {'gb_id': '53060000411320006002_53060000411180000060', 'online': 1, 'name': '宜通砖厂_1号车道出_车牌识别', 'type': '', 'lng': 0, 'lat': 0, 'ptz_type': 3}, {'gb_id': '53060000411320006003_53060000411180000060', 'online': 1, 'name': '宜通砖厂_2号车道进_车牌识别', 'type': '', 'lng': 0, 'lat': 0, 'ptz_type': 3}, {'gb_id': '53060000411320006004_53060000411180000060', 'online': 2, 'name': '宜通砖厂_3号_厂区内监控', 'type': '', 'lng': 0, 'lat': 0, 'ptz_type': 3}, {'gb_id': '53060000411320006005_53060000411180000060', 'online': 1, 'name': '宜通砖厂_4号_厂区内监控', 'type': '', 'lng': 0, 'lat': 0, 'ptz_type': 3}, {'gb_id': '53060000411320006006_53060000411180000060', 'online': 1, 'name': '宜通砖厂_1号车道_货箱识别', 'type': '', 'lng': 0, 'lat': 0, 'ptz_type': 3}, {'gb_id': '53060000411320006007_53060000411180000060', 'online': 1, 'name': '宜通砖厂_1号_破碎机监控', 'type': '', 'lng': 0, 'lat': 0, 'ptz_type': 3}, {'gb_id': '53060000411320006008_53060000411180000060', 'online': 1, 'name': '宜通砖厂_2号车道_货箱识别', 'type': '', 'lng': 0, 'lat': 0, 'ptz_type': 3}, {'gb_id': '53060000411320006009_53060000411180000060', 'online': 1, 'name': '宜通砖厂_2号_厂区内监控', 'type': '', 'lng': 0, 'lat': 0, 'ptz_type': 3}, {'gb_id': '53060000411320006010_53060000411180000060', 'online': 1, 'name': '宜通砖厂_1号_全域监控', 'type': '', 'lng': 0, 'lat': 0, 'ptz_type': 1}, {'gb_id': '53060000411320006011_53060000411180000060', 'online': 1, 'name': '宜通砖厂_2号车道出_车牌识别', 'type': '', 'lng': 0, 'lat': 0, 'ptz_type': 3}, {'gb_id': '53060000411320006012_53060000411180000060', 'online': 1, 'name': '宜通砖厂_1号车道进_车牌识别', 'type': '', 'lng': 0, 'lat': 0, 'ptz_type': 3}, {'gb_id': '53060000411320006013_53060000411180000060', 'online': 1, 'name': '宜通砖厂_5号_厂区内监控', 'type': '', 'lng': 0, 'lat': 0, 'ptz_type': 3}, {'gb_id': '53060000411320006014_53060000411180000060', 'online': 1, 'name': '宜通砖厂_2号_全域监控', 'type': '', 'lng': 0, 'lat': 0, 'ptz_type': 1}], 'id': 119}, {'name': '昭阳区文辉矿业有限公司酒渔大桥石灰岩矿', 'area_name': '洒渔', 'total': 0, 'online': 0, 'device': [{'gb_id': '53060000411320005201_53060000411180000052', 'online': 1, 'name': '文辉矿业-1号车道-货箱识别', 'type': '', 'lng': 0, 'lat': 0, 'ptz_type': 3}, {'gb_id': '53060000411320005202_53060000411180000052', 'online': 1, 'name': '文辉矿业-1号车道进-车牌识别', 'type': '', 'lng': 0, 'lat': 0, 'ptz_type': 3}, {'gb_id': '53060000411320005203_53060000411180000052', 'online': 1, 'name': '文辉矿业-2号车道进-车牌识别', 'type': '', 'lng': 0, 'lat': 0, 'ptz_type': 3}, {'gb_id': '53060000411320005204_53060000411180000052', 'online': 1, 'name': 'I文辉矿业-1号-全域监控', 'type': '', 'lng': 0, 'lat': 0, 'ptz_type': 1}, {'gb_id': '53060000411320005205_53060000411180000052', 'online': 1, 'name': '文辉矿业-2号-全域监控', 'type': '', 'lng': 0, 'lat': 0, 'ptz_type': 1}, {'gb_id': '53060000411320005206_53060000411180000052', 'online': 1, 'name': '文辉矿业-1号-厂区内监控', 'type': '', 'lng': 0, 'lat': 0, 'ptz_type': 3}, {'gb_id': '53060000411320005207_53060000411180000052', 'online': 1, 'name': '文辉矿业-1号-破碎机监控', 'type': '', 'lng': 0, 'lat': 0, 'ptz_type': 3}, {'gb_id': '53060000411320005208_53060000411180000052', 'online': 1, 'name': '文辉矿业-2号-厂区内监控', 'type': '', 'lng': 0, 'lat': 0, 'ptz_type': 3}, {'gb_id': '53060000411320005209_53060000411180000052', 'online': 1, 'name': '文辉矿业-3号-厂区内监控', 'type': '', 'lng': 0, 'lat': 0, 'ptz_type': 3}, {'gb_id': '53060000411320005210_53060000411180000052', 'online': 1, 'name': '文辉矿业-2号-破碎机监控', 'type': '', 'lng': 0, 'lat': 0, 'ptz_type': 3}, {'gb_id': '53060000411320005211_53060000411180000052', 'online': 1, 'name': 'IP Camera', 'type': '', 'lng': 0, 'lat': 0, 'ptz_type': 3}, {'gb_id': '53060000411320005212_53060000411180000052', 'online': 1, 'name': '文辉矿业-1号出口-车牌识别', 'type': '', 'lng': 0, 'lat': 0, 'ptz_type': 3}, {'gb_id': '53060000411320005213_53060000411180000052', 'online': 1, 'name': '文辉矿业-2号车道-货箱识别', 'type': '', 'lng': 0, 'lat': 0, 'ptz_type': 3}, {'gb_id': '53060000411320005214_53060000411180000052', 'online': 1, 'name': '文辉矿业-3号-破碎机监控', 'type': '', 'lng': 0, 'lat': 0, 'ptz_type': 3}, {'gb_id': '53060000411320005215_53060000411180000052', 'online': 1, 'name': '文辉矿业-2号出口-车牌识别', 'type': '', 'lng': 0, 'lat': 0, 'ptz_type': 3}], 'id': 118}, {'name': '昭通市林予商贸有限责任公司新街石灰岩', 'area_name': '布嘎', 'total': 0, 'online': 0, 'device': [{'gb_id': '53060000411320005801_53060000411180000058', 'online': 1, 'name': '昭阳林予矿业_1号_厂区监控', 'type': '', 'lng': 0, 'lat': 0, 'ptz_type': 3}, {'gb_id': '53060000411320005802_53060000411180000058', 'online': 1, 'name': '昭阳林予矿业_1号_破碎口监控', 'type': '', 'lng': 0, 'lat': 0, 'ptz_type': 3}, {'gb_id': '53060000411320005803_53060000411180000058', 'online': 1, 'name': '昭阳林予矿业_1号车道出_车牌识别', 'type': '', 'lng': 0, 'lat': 0, 'ptz_type': 3}, {'gb_id': '53060000411320005804_53060000411180000058', 'online': 1, 'name': '昭阳林予矿业_2号车道出_车牌识别', 'type': '', 'lng': 0, 'lat': 0, 'ptz_type': 3}, {'gb_id': '53060000411320005805_53060000411180000058', 'online': 1, 'name': '昭阳林予矿业_1号车道_货箱识别', 'type': '', 'lng': 0, 'lat': 0, 'ptz_type': 3}, {'gb_id': '53060000411320005806_53060000411180000058', 'online': 1, 'name': '昭阳林予矿业_2号车道进_车牌识别', 'type': '', 'lng': 0, 'lat': 0, 'ptz_type': 3}, {'gb_id': '53060000411320005807_53060000411180000058', 'online': 1, 'name': '昭阳林予矿业_2号车道_货箱识别', 'type': '', 'lng': 0, 'lat': 0, 'ptz_type': 3}, {'gb_id': '53060000411320005808_53060000411180000058', 'online': 1, 'name': '昭阳林予矿业_1号车道进_车牌识别', 'type': '', 'lng': 0, 'lat': 0, 'ptz_type': 3}, {'gb_id': '53060000411320005809_53060000411180000058', 'online': 1, 'name': 'Channel08', 'type': '', 'lng': 0, 'lat': 0, 'ptz_type': 1}], 'id': 117}, {'name': '昭通市昭阳区龙宝山建材有限公司石灰岩矿', 'area_name': '小龙洞', 'total': 0, 'online': 0, 'device': [{'gb_id': '53060000411320003901_53060000411180000039', 'online': 1, 'name': '昭阳区龙宝山采石场_1号_厂区内监控', 'type': '2,1', 'lng': 103.624806, 'lat': 27.418404, 'ptz_type': 3}, {'gb_id': '53060000411320003902_53060000411180000039', 'online': 1, 'name': '昭阳区龙宝山采石场_1号_破碎机监控', 'type': '', 'lng': 103.624694, 'lat': 27.418191, 'ptz_type': 3}, {'gb_id': '53060000411320003903_53060000411180000039', 'online': 1, 'name': '昭阳区龙宝山采石场_2号车道出_车牌识别', 'type': '1', 'lng': 103.625046, 'lat': 27.41724, 'ptz_type': 3}, {'gb_id': '53060000411320003904_53060000411180000039', 'online': 1, 'name': '昭阳区龙宝山采石场_1号车道出_车牌识别', 'type': '1', 'lng': 103.625102, 'lat': 27.417165, 'ptz_type': 3}, {'gb_id': '53060000411320003905_53060000411180000039', 'online': 1, 'name': '昭阳区龙宝山采石场_2号车道进_车牌识别', 'type': '1', 'lng': 103.624976, 'lat': 27.417165, 'ptz_type': 3}, {'gb_id': '53060000411320003906_53060000411180000039', 'online': 1, 'name': '昭阳区龙宝山采石场_1号车道进_车牌识别', 'type': '1', 'lng': 103.62499, 'lat': 27.417065, 'ptz_type': 3}, {'gb_id': '53060000411320003907_53060000411180000039', 'online': 1, 'name': '昭阳区龙宝山采石场_2号车道_货箱识别', 'type': '1', 'lng': 103.625131, 'lat': 27.41704, 'ptz_type': 3}, {'gb_id': '53060000411320003908_53060000411180000039', 'online': 1, 'name': '昭阳区龙宝山采石场_1号车道_货箱识别', 'type': '7,2', 'lng': 103.625141, 'lat': 27.417373, 'ptz_type': 3}, {'gb_id': '53060000411320003909_53060000411180000039', 'online': 1, 'name': '昭阳区龙宝山采石场_1号_全域监控', 'type': '', 'lng': 103.625527, 'lat': 27.4196, 'ptz_type': 1}, {'gb_id': '53060000411320003910_53060000411180000039', 'online': 1, 'name': '昭阳区龙宝山采石场_2号_全域监控', 'type': '', 'lng': 103.626006, 'lat': 27.418561, 'ptz_type': 1}, {'gb_id': '53060000411320003911_53060000411180000039', 'online': 1, 'name': 'IP Camera', 'type': '', 'lng': 0, 'lat': 0, 'ptz_type': 3}, {'gb_id': '53060000411320003912_53060000411180000039', 'online': 1, 'name': 'IP Camera', 'type': '', 'lng': 0, 'lat': 0, 'ptz_type': 3}, {'gb_id': '53060000411320003913_53060000411180000039', 'online': 1, 'name': 'IP Camera', 'type': '', 'lng': 0, 'lat': 0, 'ptz_type': 3}, {'gb_id': '53060000411320003914_53060000411180000039', 'online': 1, 'name': 'IP Camera', 'type': '', 'lng': 0, 'lat': 0, 'ptz_type': 3}, {'gb_id': '53060000411320003915_53060000411180000039', 'online': 1, 'name': 'IP Camera', 'type': '', 'lng': 0, 'lat': 0, 'ptz_type': 3}, {'gb_id': '53060000411320003916_53060000411180000039', 'online': 1, 'name': 'IP Camera', 'type': '', 'lng': 0, 'lat': 0, 'ptz_type': 3}], 'id': 116}, {'name': '昭通市昭阳区宏迈砂石料免烧砖有限公司石灰岩矿', 'area_name': '洒渔', 'total': 0, 'online': 0, 'device': [{'gb_id': '53060000411320005101_53060000411180000051', 'online': 1, 'name': '宏迈厂区监控', 'type': '', 'lng': 0, 'lat': 0, 'ptz_type': 3}, {'gb_id': '53060000411320005102_53060000411180000051', 'online': 1, 'name': '宏迈破碎远景', 'type': '', 'lng': 0, 'lat': 0, 'ptz_type': 3}, {'gb_id': '53060000411320005103_53060000411180000051', 'online': 1, 'name': '宏迈砂石料_1号车道进_车牌识别', 'type': '', 'lng': 103.792388, 'lat': 27.423285, 'ptz_type': 3}, {'gb_id': '53060000411320005104_53060000411180000051', 'online': 1, 'name': '宏迈砂石料_2号车道出_车牌识别', 'type': '', 'lng': 103.792388, 'lat': 27.423157, 'ptz_type': 3}, {'gb_id': '53060000411320005105_53060000411180000051', 'online': 1, 'name': '宏迈砂石料_1号_破碎机监控', 'type': '', 'lng': 103.792374, 'lat': 27.423222, 'ptz_type': 3}, {'gb_id': '53060000411320005106_53060000411180000051', 'online': 1, 'name': '宏迈厂区监控', 'type': '', 'lng': 103.792367, 'lat': 27.423218, 'ptz_type': 3}, {'gb_id': '53060000411320005107_53060000411180000051', 'online': 1, 'name': '宏迈砂石料_2号车道_货箱识别', 'type': '', 'lng': 103.792489, 'lat': 27.424447, 'ptz_type': 3}, {'gb_id': '53060000411320005108_53060000411180000051', 'online': 1, 'name': '宏迈砂石料_2号车道进_车牌识别', 'type': '', 'lng': 103.792299, 'lat': 27.424054, 'ptz_type': 3}, {'gb_id': '53060000411320005109_53060000411180000051', 'online': 1, 'name': '宏迈砂石料_1号车道_货箱识别', 'type': '', 'lng': 0, 'lat': 0, 'ptz_type': 3}, {'gb_id': '53060000411320005110_53060000411180000051', 'online': 1, 'name': '宏迈砂石_1号_全域监控', 'type': '', 'lng': 0, 'lat': 0, 'ptz_type': 1}, {'gb_id': '53060000411320005111_53060000411180000051', 'online': 1, 'name': '宏迈砂石料_1号车道出_车牌识别', 'type': '', 'lng': 0, 'lat': 0, 'ptz_type': 3}, {'gb_id': '53060000411320005112_53060000411180000051', 'online': 1, 'name': '宏迈砂石_2号_全域监控', 'type': '', 'lng': 0, 'lat': 0, 'ptz_type': 1}], 'id': 115}, {'name': '昭通市勇顺石料有限公司石灰岩矿', 'area_name': '北闸', 'total': 0, 'online': 0, 'device': [{'gb_id': '53060000411320004401_53060000411180000044', 'online': 1, 'name': '勇顺石料_1号_厂区内监控', 'type': '', 'lng': 0, 'lat': 0, 'ptz_type': 3}, {'gb_id': '53060000411320004402_53060000411180000044', 'online': 1, 'name': '勇顺石料_1号_破碎机监控', 'type': '', 'lng': 0, 'lat': 0, 'ptz_type': 3}, {'gb_id': '53060000411320004403_53060000411180000044', 'online': 1, 'name': '勇顺石料_1号车道进_车牌识别', 'type': '', 'lng': 0, 'lat': 0, 'ptz_type': 3}, {'gb_id': '53060000411320004404_53060000411180000044', 'online': 1, 'name': '勇顺石料_1号车道出_车牌识别', 'type': '', 'lng': 0, 'lat': 0, 'ptz_type': 3}, {'gb_id': '53060000411320004405_53060000411180000044', 'online': 1, 'name': '勇顺石料_1号车道_货箱识别', 'type': '', 'lng': 0, 'lat': 0, 'ptz_type': 3}, {'gb_id': '53060000411320004406_53060000411180000044', 'online': 1, 'name': '勇顺 石料_2号车道进_车牌识别', 'type': '', 'lng': 0, 'lat': 0, 'ptz_type': 3}, {'gb_id': '53060000411320004407_53060000411180000044', 'online': 1, 'name': '勇顺石料_2号车道_货箱识别', 'type': '', 'lng': 0, 'lat': 0, 'ptz_type': 3}, {'gb_id': '53060000411320004408_53060000411180000044', 'online': 1, 'name': '勇顺石料_2号车道出_车牌识别', 'type': '', 'lng': 0, 'lat': 0, 'ptz_type': 3}, {'gb_id': '53060000411320004409_53060000411180000044', 'online': 1, 'name': '勇顺砂石料_1号_全域监控', 'type': '', 'lng': 0, 'lat': 0, 'ptz_type': 1}, {'gb_id': '53060000411320004410_53060000411180000044', 'online': 1, 'name': '勇顺砂石料_2号_全域监控', 'type': '', 'lng': 0, 'lat': 0, 'ptz_type': 1}], 'id': 114}, {'name': '昭通市昌峻虬宇建材有限公司苏家院砂岩矿', 'area_name': '太平', 'total': 0, 'online': 0, 'device': [{'gb_id': '53060000411320004901_53060000411180000049', 'online': 1, 'name': '昌峻虬宇砂石料_1号车道_货箱识别', 'type': '', 'lng': 0, 'lat': 0, 'ptz_type': 3}, {'gb_id': '53060000411320004902_53060000411180000049', 'online': 1, 'name': '昌峻虬宇砂石料_1号_破碎机监控', 'type': '', 'lng': 0, 'lat': 0, 'ptz_type': 3}, {'gb_id': '53060000411320004903_53060000411180000049', 'online': 1, 'name': '昌峻虬宇砂石料_1号车道出_车牌识别', 'type': '', 'lng': 0, 'lat': 0, 'ptz_type': 3}, {'gb_id': '53060000411320004904_53060000411180000049', 'online': 1, 'name': '昌峻虬宇砂石料_1号车道进_车牌识别', 'type': '', 'lng': 0, 'lat': 0, 'ptz_type': 3}, {'gb_id': '53060000411320004905_53060000411180000049', 'online': 1, 'name': '昌峻虬宇砂石料_1号_厂区内监控', 'type': '', 'lng': 0, 'lat': 0, 'ptz_type': 3}, {'gb_id': '53060000411320004906_53060000411180000049', 'online': 1, 'name': '昌峻虬宇砂石料_1号_全域监控', 'type': '', 'lng': 0, 'lat': 0, 'ptz_type': 1}, {'gb_id': '53060000411320004907_53060000411180000049', 'online': 1, 'name': '昌峻虬宇砂石料_2号_全域监控', 'type': '', 'lng': 0, 'lat': 0, 'ptz_type': 1}, {'gb_id': '53060000411320004908_53060000411180000049', 'online': 1, 'name': '昌峻虬宇砂石料_全景监控', 'type': '', 'lng': 0, 'lat': 0, 'ptz_type': 3}], 'id': 113}, {'name': '昭通晟煌建材有限公司石灰岩矿', 'area_name': '洒渔', 'total': 0, 'online': 0, 'device': [{'gb_id': '53060000411320004801_53060000411180000048', 'online': 2, 'name': '晟煌建材砂石料_1号_破碎机监控', 'type': '', 'lng': 0, 'lat': 0, 'ptz_type': 3}, {'gb_id': '53060000411320004802_53060000411180000048', 'online': 2, 'name': 'IP Camera', 'type': '', 'lng': 0, 'lat': 0, 'ptz_type': 3}, {'gb_id': '53060000411320004803_53060000411180000048', 'online': 2, 'name': '晟煌建材砂石料_2号车道出_车牌识别', 'type': '', 'lng': 0, 'lat': 0, 'ptz_type': 3}, {'gb_id': '53060000411320004804_53060000411180000048', 'online': 2, 'name': '晟煌建材砂石料_2号车道_货箱识别', 'type': '', 'lng': 0, 'lat': 0, 'ptz_type': 3}, {'gb_id': '53060000411320004805_53060000411180000048', 'online': 2, 'name': '晟煌建材砂石料_1号车道进_车牌识别', 'type': '', 'lng': 0, 'lat': 0, 'ptz_type': 3}, {'gb_id': '53060000411320004806_53060000411180000048', 'online': 2, 'name': '晟煌建材砂石料_1号车道_货箱识别', 'type': '', 'lng': 0, 'lat': 0, 'ptz_type': 3}, {'gb_id': '53060000411320004807_53060000411180000048', 'online': 2, 'name': '晟煌建材砂石料_1号车道出_车牌识别', 'type': '', 'lng': 0, 'lat': 0, 'ptz_type': 3}, {'gb_id': '53060000411320004808_53060000411180000048', 'online': 2, 'name': '晟煌建材砂石料_2号车道进_车牌识别', 'type': '', 'lng': 0, 'lat': 0, 'ptz_type': 3}, {'gb_id': '53060000411320004809_53060000411180000048', 'online': 2, 'name': '晟煌建材砂石料_1号_全域监控', 'type': '', 'lng': 0, 'lat': 0, 'ptz_type': 1}], 'id': 110}, {'name': '昭通国洋建材有限公司小松包包采区', 'area_name': '北闸', 'total': 0, 'online': 0, 'device': [{'gb_id': '53060000411320003201_53060000411180000032', 'online': 1, 'name': '国洋建材_1号_厂区内监控', 'type': '', 'lng': 103.792283, 'lat': 27.467888, 'ptz_type': 3}, {'gb_id': '53060000411320003202_53060000411180000032', 'online': 1, 'name': '国洋建材_1号_破碎机监控', 'type': '', 'lng': 103.791754, 'lat': 27.467418, 'ptz_type': 3}, {'gb_id': '53060000411320003203_53060000411180000032', 'online': 1, 'name': '国洋建材_2号_厂区内监控', 'type': '1', 'lng': 103.792753, 'lat': 27.467471, 'ptz_type': 3}, {'gb_id': '53060000411320003204_53060000411180000032', 'online': 1, 'name': '国洋建材_3号_厂区内监控', 'type': '2', 'lng': 103.792224, 'lat': 27.466949, 'ptz_type': 3}, {'gb_id': '53060000411320003205_53060000411180000032', 'online': 1, 'name': '国洋建材_1号车道_货箱识别', 'type': '2,7', 'lng': 103.787726, 'lat': 27.460089, 'ptz_type': 3}, {'gb_id': '53060000411320003206_53060000411180000032', 'online': 1, 'name': '国洋建材_1号车道出_车牌识别', 'type': '7,2,1', 'lng': 103.78755, 'lat': 27.459828, 'ptz_type': 3}, {'gb_id': '53060000411320003207_53060000411180000032', 'online': 1, 'name': '国洋建材_2号车道进_车牌识别', 'type': '1', 'lng': 103.788226, 'lat': 27.460375, 'ptz_type': 3}, {'gb_id': '53060000411320003208_53060000411180000032', 'online': 1, 'name': '国洋建材_1号车道进_车牌识别', 'type': '1', 'lng': 103.787914, 'lat': 27.460621, 'ptz_type': 3}, {'gb_id': '53060000411320003209_53060000411180000032', 'online': 1, 'name': '国洋建材_2号车道出_车牌识别', 'type': '7,2,1', 'lng': 103.787845, 'lat': 27.459741, 'ptz_type': 3}, {'gb_id': '53060000411320003210_53060000411180000032', 'online': 1, 'name': '国洋建材_2号车道_货箱识别', 'type': '7,2', 'lng': 103.788123, 'lat': 27.46025, 'ptz_type': 3}, {'gb_id': '53060000411320003211_53060000411180000032', 'online': 1, 'name': '国洋建材_1号_全域监控', 'type': '', 'lng': 103.794087, 'lat': 27.47775, 'ptz_type': 1}, {'gb_id': '53060000411320003212_53060000411180000032', 'online': 1, 'name': '国洋建材_2号_全域监控', 'type': '', 'lng': 103.790512, 'lat': 27.478363, 'ptz_type': 1}, {'gb_id': '53060000411320003213_53060000411180000032', 'online': 1, 'name': '国洋建材_3号_全域监控', 'type': '', 'lng': 103.790012, 'lat': 27.475467, 'ptz_type': 1}, {'gb_id': '53060000411320003214_53060000411180000032', 'online': 1, 'name': '国洋建材_2号_破碎机监控', 'type': '', 'lng': 0, 'lat': 0, 'ptz_type': 3}, {'gb_id': '53060000411320003215_53060000411180000032', 'online': 1, 'name': '国洋建材_1号_厂房区域', 'type': '', 'lng': 0, 'lat': 0, 'ptz_type': 3}, {'gb_id': '53060000411320003216_53060000411180000032', 'online': 1, 'name': '国洋建材_3号_破碎机监控', 'type': '', 'lng': 0, 'lat': 0, 'ptz_type': 3}], 'id': 109}, {'name': '昭通市智豪建材有限公司石灰岩矿', 'area_name': '青岗岭', 'total': 0, 'online': 0, 'device': [{'gb_id': '53060000411320005301_53060000411180000053', 'online': 1, 'name': '智豪砂石料_1号_厂区内监控', 'type': '', 'lng': 0, 'lat': 0, 'ptz_type': 3}, {'gb_id': '53060000411320005302_53060000411180000053', 'online': 1, 'name': '砂石料_2号_厂区内监控', 'type': '', 'lng': 0, 'lat': 0, 'ptz_type': 3}, {'gb_id': '53060000411320005303_53060000411180000053', 'online': 1, 'name': '砂石料_4号_厂区内监控', 'type': '', 'lng': 0, 'lat': 0, 'ptz_type': 3}, {'gb_id': '53060000411320005304_53060000411180000053', 'online': 1, 'name': '智豪砂石料_1号_破碎机监控', 'type': '', 'lng': 0, 'lat': 0, 'ptz_type': 3}, {'gb_id': '53060000411320005305_53060000411180000053', 'online': 1, 'name': '智豪砂石料_1号车道_货箱识别', 'type': '', 'lng': 0, 'lat': 0, 'ptz_type': 3}, {'gb_id': '53060000411320005306_53060000411180000053', 'online': 1, 'name': '智豪砂石料_2号车道进_车牌识别', 'type': '', 'lng': 0, 'lat': 0, 'ptz_type': 3}, {'gb_id': '53060000411320005307_53060000411180000053', 'online': 1, 'name': '智豪砂石料_2号车道出_车牌识别', 'type': '', 'lng': 0, 'lat': 0, 'ptz_type': 3}, {'gb_id': '53060000411320005308_53060000411180000053', 'online': 1, 'name': '砂石料_1号车道进_车牌识别', 'type': '', 'lng': 0, 'lat': 0, 'ptz_type': 3}, {'gb_id': '53060000411320005309_53060000411180000053', 'online': 1, 'name': '智豪砂石料_1号车道出_车牌识别', 'type': '', 'lng': 0, 'lat': 0, 'ptz_type': 3}, {'gb_id': '53060000411320005310_53060000411180000053', 'online': 1, 'name': '砂石料_2号车道_货箱识别', 'type': '', 'lng': 0, 'lat': 0, 'ptz_type': 3}, {'gb_id': '53060000411320005311_53060000411180000053', 'online': 1, 'name': '智豪砂石料_1号_全域监控', 'type': '', 'lng': 0, 'lat': 0, 'ptz_type': 1}, {'gb_id': '53060000411320005312_53060000411180000053', 'online': 1, 'name': '智豪砂石料_2号_全域监控', 'type': '', 'lng': 0, 'lat': 0, 'ptz_type': 1}, {'gb_id': '53060000411320005313_53060000411180000053', 'online': 1, 'name': '智豪砂石料_3号_全域监控', 'type': '', 'lng': 0, 'lat': 0, 'ptz_type': 1}, {'gb_id': '53060000411320005314_53060000411180000053', 'online': 1, 'name': '智豪砂石料_2号_破碎机监控', 'type': '', 'lng': 0, 'lat': 0, 'ptz_type': 1}], 'id': 108}, {'name': '昭通市昭阳区丰岭建筑建材有限公司页岩矿', 'area_name': '北闸', 'total': 0, 'online': 0, 'device': [{'gb_id': '53060000411320006101_53060000411180000061', 'online': 1, 'name': '丰岭建筑建材砂石料_3号_厂区内监控', 'type': '', 'lng': 0, 'lat': 0, 'ptz_type': 3}, {'gb_id': '53060000411320006102_53060000411180000061', 'online': 1, 'name': '丰岭建筑建材砂石料_2号_厂区内监控', 'type': '', 'lng': 0, 'lat': 0, 'ptz_type': 3}, {'gb_id': '53060000411320006103_53060000411180000061', 'online': 1, 'name': '丰岭建筑建材砂石料_7号_厂区内监控', 'type': '', 'lng': 0, 'lat': 0, 'ptz_type': 3}, {'gb_id': '53060000411320006104_53060000411180000061', 'online': 1, 'name': '丰岭建筑建材砂石料_6号_厂区内监控', 'type': '', 'lng': 0, 'lat': 0, 'ptz_type': 3}, {'gb_id': '53060000411320006105_53060000411180000061', 'online': 1, 'name': '丰岭建筑建材砂石料_4号_厂区内监控', 'type': '', 'lng': 0, 'lat': 0, 'ptz_type': 3}, {'gb_id': '53060000411320006106_53060000411180000061', 'online': 1, 'name': '丰岭建筑建材砂石料_1号_厂区内监控', 'type': '', 'lng': 0, 'lat': 0, 'ptz_type': 3}, {'gb_id': '53060000411320006107_53060000411180000061', 'online': 1, 'name': '丰岭建筑建材砂石料_2号车道出_车牌识别', 'type': '', 'lng': 0, 'lat': 0, 'ptz_type': 3}, {'gb_id': '53060000411320006108_53060000411180000061', 'online': 1, 'name': '丰岭建筑建材砂石料_2号车道进_车牌识别', 'type': '', 'lng': 0, 'lat': 0, 'ptz_type': 3}, {'gb_id': '53060000411320006109_53060000411180000061', 'online': 1, 'name': '丰岭建筑建材砂石料_1号车道进_车牌识别', 'type': '', 'lng': 0, 'lat': 0, 'ptz_type': 3}, {'gb_id': '53060000411320006110_53060000411180000061', 'online': 1, 'name': '丰岭建筑建材砂石料_1号车道出_车牌识别', 'type': '', 'lng': 0, 'lat': 0, 'ptz_type': 3}, {'gb_id': '53060000411320006111_53060000411180000061', 'online': 1, 'name': '丰岭建筑建材砂石料_2号车道_货箱识别', 'type': '', 'lng': 0, 'lat': 0, 'ptz_type': 3}, {'gb_id': '53060000411320006112_53060000411180000061', 'online': 1, 'name': '丰岭建筑建材砂石料_1号车道_货箱识别', 'type': '', 'lng': 0, 'lat': 0, 'ptz_type': 3}, {'gb_id': '53060000411320006113_53060000411180000061', 'online': 1, 'name': '丰岭建筑建材砂石料_1号_全域监控', 'type': '', 'lng': 0, 'lat': 0, 'ptz_type': 1}, {'gb_id': '53060000411320006114_53060000411180000061', 'online': 1, 'name': '丰岭建筑建材砂石料_2号_全域监控', 'type': '', 'lng': 0, 'lat': 0, 'ptz_type': 1}, {'gb_id': '53060000411320006115_53060000411180000061', 'online': 1, 'name': '丰岭建筑建材砂石料_3号_全域监控', 'type': '', 'lng': 0, 'lat': 0, 'ptz_type': 1}, {'gb_id': '53060000411320006116_53060000411180000061', 'online': 1, 'name': '丰岭建筑建材砂石料_8号_厂区内监控', 'type': '', 'lng': 0, 'lat': 0, 'ptz_type': 3}], 'id': 106}, {'name': '昭通市昭阳区寿保建材有限公司页岩矿', 'area_name': '旧圃', 'total': 0, 'online': 0, 'device': [{'gb_id': '53060000411320005701_53060000411180000057', 'online': 2, 'name': '寿保建材_1号_破碎机监控', 'type': '', 'lng': 103.666672, 'lat': 27.381189, 'ptz_type': 3}, {'gb_id': '53060000411320005702_53060000411180000057', 'online': 2, 'name': '寿保建材_1号_厂区内监控', 'type': '', 'lng': 103.666889, 'lat': 27.381241, 'ptz_type': 3}, {'gb_id': '53060000411320005703_53060000411180000057', 'online': 1, 'name': '寿保建材_2号_厂区内监控', 'type': '', 'lng': 103.6666, 'lat': 27.381305, 'ptz_type': 3}, {'gb_id': '53060000411320005704_53060000411180000057', 'online': 1, 'name': '寿保建材_2号_破碎机监控', 'type': '', 'lng': 103.664591, 'lat': 27.380651, 'ptz_type': 3}, {'gb_id': '53060000411320005705_53060000411180000057', 'online': 2, 'name': '寿保建材_1号车道出_车牌识别', 'type': '', 'lng': 103.664389, 'lat': 27.380689, 'ptz_type': 3}, {'gb_id': '53060000411320005706_53060000411180000057', 'online': 2, 'name': '寿保建材_1号车道进_车牌识别', 'type': '', 'lng': 103.664736, 'lat': 27.380753, 'ptz_type': 3}, {'gb_id': '53060000411320005707_53060000411180000057', 'online': 2, 'name': '寿保建材_货箱识别', 'type': '', 'lng': 103.666354, 'lat': 27.380663, 'ptz_type': 3}, {'gb_id': '53060000411320005708_53060000411180000057', 'online': 1, 'name': '寿保建材_1号_全域监控', 'type': '', 'lng': 103.666311, 'lat': 27.380535, 'ptz_type': 1}, {'gb_id': '53060000411320005709_53060000411180000057', 'online': 2, 'name': '寿保建材_2号_全域监控', 'type': '', 'lng': 0, 'lat': 0, 'ptz_type': 1}, {'gb_id': '53060000411320005710_53060000411180000057', 'online': 1, 'name': '寿保建材_3号_全域监控', 'type': '', 'lng': 0, 'lat': 0, 'ptz_type': 1}], 'id': 105}, {'name': '昭通市昭阳区马真良砂石料有限公司石灰岩矿山', 'area_name': '小龙洞', 'total': 0, 'online': 0, 'device': [{'gb_id': '53060000411320003801_53060000411180000038', 'online': 1, 'name': '马真良砂石料_1号_厂区内监控', 'type': '2', 'lng': 103.810963, 'lat': 27.363126, 'ptz_type': 3}, {'gb_id': '53060000411320003802_53060000411180000038', 'online': 1, 'name': '马真良砂石料_2号_厂区内监控', 'type': '', 'lng': 103.810353, 'lat': 27.362889, 'ptz_type': 3}, {'gb_id': '53060000411320003803_53060000411180000038', 'online': 1, 'name': '马真良砂石料_1号_破碎机监控', 'type': '', 'lng': 103.811382, 'lat': 27.361694, 'ptz_type': 3}, {'gb_id': '53060000411320003804_53060000411180000038', 'online': 1, 'name': '马真良砂石料_2号_破碎机监控', 'type': '2,1', 'lng': 103.811344, 'lat': 27.361434, 'ptz_type': 3}, {'gb_id': '53060000411320003805_53060000411180000038', 'online': 1, 'name': '马真良砂石料_1号车道进_车牌识别', 'type': '1', 'lng': 103.809566, 'lat': 27.361592, 'ptz_type': 3}, {'gb_id': '53060000411320003806_53060000411180000038', 'online': 1, 'name': '马真良砂石料_1号车道_货箱识别', 'type': '3,7,2', 'lng': 103.809718, 'lat': 27.361716, 'ptz_type': 3}, {'gb_id': '53060000411320003807_53060000411180000038', 'online': 1, 'name': '马真良砂石料_1号车道出_车牌识别', 'type': '3,7,2,1', 'lng': 103.809871, 'lat': 27.361784, 'ptz_type': 3}, {'gb_id': '53060000411320003808_53060000411180000038', 'online': 1, 'name': '马真良砂石料_2号车道进_车牌识别', 'type': '', 'lng': 103.809617, 'lat': 27.361524, 'ptz_type': 3}, {'gb_id': '53060000411320003809_53060000411180000038', 'online': 1, 'name': '马真良砂石料_2号车道出_车牌识别', 'type': '2', 'lng': 103.809871, 'lat': 27.361626, 'ptz_type': 3}, {'gb_id': '53060000411320003810_53060000411180000038', 'online': 1, 'name': '马真良砂石料_2号车道_货箱识别', 'type': '7,2', 'lng': 103.809744, 'lat': 27.361581, 'ptz_type': 3}, {'gb_id': '53060000411320003811_53060000411180000038', 'online': 1, 'name': '马真良砂石料_1号_全域监控', 'type': '6', 'lng': 103.812842, 'lat': 27.361682, 'ptz_type': 1}, {'gb_id': '53060000411320003812_53060000411180000038', 'online': 1, 'name': 'IP Camera', 'type': '', 'lng': 0, 'lat': 0, 'ptz_type': 3}, {'gb_id': '53060000411320003813_53060000411180000038', 'online': 1, 'name': 'IP Camera', 'type': '', 'lng': 0, 'lat': 0, 'ptz_type': 3}, {'gb_id': '53060000411320003814_53060000411180000038', 'online': 1, 'name': '马真良砂石料_2号_全域监控', 'type': '', 'lng': 0, 'lat': 0, 'ptz_type': 1}], 'id': 104}, {'name': '昭通李龙云砂石料有限公司石灰岩矿', 'area_name': '北闸', 'total': 0, 'online': 0, 'device': [{'gb_id': '53060000411320004001_53060000411180000040', 'online': 1, 'name': '李龙云砂石_2号车道_货箱识别', 'type': '', 'lng': 0, 'lat': 0, 'ptz_type': 3}, {'gb_id': '53060000411320004002_53060000411180000040', 'online': 1, 'name': '李龙云砂石_1号_破碎机监控', 'type': '', 'lng': 103.803283, 'lat': 27.409182, 'ptz_type': 3}, {'gb_id': '53060000411320004003_53060000411180000040', 'online': 1, 'name': '李龙云砂石_1号车道_货箱识别', 'type': '', 'lng': 103.804538, 'lat': 27.411063, 'ptz_type': 3}, {'gb_id': '53060000411320004004_53060000411180000040', 'online': 1, 'name': '李龙云砂石_1号_全域监控', 'type': '', 'lng': 103.803309, 'lat': 27.408997, 'ptz_type': 1}, {'gb_id': '53060000411320004005_53060000411180000040', 'online': 1, 'name': '李龙云砂石_1号车道进_车牌识别', 'type': '', 'lng': 103.804512, 'lat': 27.410784, 'ptz_type': 3}, {'gb_id': '53060000411320004006_53060000411180000040', 'online': 1, 'name': '李龙云砂石_2号_破碎机监控', 'type': '', 'lng': 103.803021, 'lat': 27.40909, 'ptz_type': 3}, {'gb_id': '53060000411320004007_53060000411180000040', 'online': 1, 'name': '李龙云砂石_1号_厂区内监控', 'type': '', 'lng': 103.804616, 'lat': 27.410947, 'ptz_type': 3}, {'gb_id': '53060000411320004008_53060000411180000040', 'online': 1, 'name': '李龙云砂石_1号车道出_车牌识别', 'type': '', 'lng': 103.804302, 'lat': 27.410854, 'ptz_type': 3}, {'gb_id': '53060000411320004009_53060000411180000040', 'online': 1, 'name': '李龙云砂石_2号车道进_车牌识别', 'type': '', 'lng': 103.803021, 'lat': 27.40895, 'ptz_type': 3}, {'gb_id': '53060000411320004010_53060000411180000040', 'online': 1, 'name': '李龙云砂石_2号车道出_车牌识别', 'type': '', 'lng': 103.802864, 'lat': 27.408881, 'ptz_type': 3}, {'gb_id': '53060000411320004011_53060000411180000040', 'online': 1, 'name': '李龙云砂石_2号_厂区内监控', 'type': '', 'lng': 103.803178, 'lat': 27.408904, 'ptz_type': 3}, {'gb_id': '53060000411320004012_53060000411180000040', 'online': 1, 'name': '李龙云砂石_3号_厂区内监控', 'type': '', 'lng': 103.803779, 'lat': 27.410343, 'ptz_type': 1}, {'gb_id': '53060000411320004013_53060000411180000040', 'online': 1, 'name': '李龙云砂石_2号_全域监控', 'type': '', 'lng': 103.805636, 'lat': 27.421856, 'ptz_type': 1}, {'gb_id': '53060000411320004014_53060000411180000040', 'online': 1, 'name': '李龙云砂石_3号_全域监控', 'type': '', 'lng': 103.805375, 'lat': 27.420394, 'ptz_type': 1}, {'gb_id': '53060000411320004015_53060000411180000040', 'online': 1, 'name': '李龙云砂石_4号_全域监控', 'type': '', 'lng': 103.811415, 'lat': 27.420069, 'ptz_type': 1}], 'id': 103}, {'name': '昭通市凯胜砂石料有限公司石灰岩矿', 'area_name': '小龙洞', 'total': 0, 'online': 0, 'device': [{'gb_id': '53060000411320003301_53060000411180000033', 'online': 1, 'name': '凯胜砂石_1号_破碎机监控', 'type': '', 'lng': 103.825464, 'lat': 27.342599, 'ptz_type': 3}, {'gb_id': '53060000411320003302_53060000411180000033', 'online': 1, 'name': '凯胜砂石_1号_厂区内监控', 'type': '', 'lng': 103.825812, 'lat': 27.342666, 'ptz_type': 3}, {'gb_id': '53060000411320003303_53060000411180000033', 'online': 1, 'name': '凯胜砂石_2号_厂区内监控', 'type': '', 'lng': 103.825646, 'lat': 27.342586, 'ptz_type': 3}, {'gb_id': '53060000411320003304_53060000411180000033', 'online': 1, 'name': '凯胜砂石_2号车道进_车牌识别', 'type': '', 'lng': 103.825237, 'lat': 27.342115, 'ptz_type': 3}, {'gb_id': '53060000411320003305_53060000411180000033', 'online': 1, 'name': '凯胜砂石_1号车道_货箱识别', 'type': '', 'lng': 103.825179, 'lat': 27.342133, 'ptz_type': 3}, {'gb_id': '53060000411320003306_53060000411180000033', 'online': 1, 'name': '凯胜砂石_1号车道进_车牌识别', 'type': '', 'lng': 103.825091, 'lat': 27.342174, 'ptz_type': 3}, {'gb_id': '53060000411320003307_53060000411180000033', 'online': 1, 'name': '凯胜砂石_1号车道出_车牌识别', 'type': '', 'lng': 103.825127, 'lat': 27.342176, 'ptz_type': 3}, {'gb_id': '53060000411320003308_53060000411180000033', 'online': 1, 'name': '凯胜砂石_2号车道出_车牌识别', 'type': '', 'lng': 103.825177, 'lat': 27.342214, 'ptz_type': 3}, {'gb_id': '53060000411320003309_53060000411180000033', 'online': 1, 'name': '凯胜砂石_2号车道_货箱识别', 'type': '', 'lng': 103.82511, 'lat': 27.342164, 'ptz_type': 3}, {'gb_id': '53060000411320003310_53060000411180000033', 'online': 1, 'name': '凯胜砂石-1号-全景监控', 'type': '', 'lng': 103.826495, 'lat': 27.34334, 'ptz_type': 1}, {'gb_id': '53060000411320003311_53060000411180000033', 'online': 1, 'name': '凯胜砂石_2号_全域监控', 'type': '', 'lng': 103.825633, 'lat': 27.343756, 'ptz_type': 1}], 'id': 102}, {'name': '昭通市昭阳区宏伟砂石料开发有限公司石灰岩矿', 'area_name': '小龙洞', 'total': 0, 'online': 0, 'device': [{'gb_id': '53060000411320004101_53060000411180000041', 'online': 1, 'name': '宏伟砂石料_3号_厂区监控', 'type': '', 'lng': 103.861979, 'lat': 27.314081, 'ptz_type': 3}, {'gb_id': '53060000411320004102_53060000411180000041', 'online': 1, 'name': '宏伟砂石料_2号_厂区监控', 'type': '', 'lng': 103.861979, 'lat': 27.314031, 'ptz_type': 3}, {'gb_id': '53060000411320004103_53060000411180000041', 'online': 1, 'name': '宏伟砂石料_1号_破碎机监控', 'type': '', 'lng': 103.862148, 'lat': 27.314157, 'ptz_type': 3}, {'gb_id': '53060000411320004104_53060000411180000041', 'online': 1, 'name': '宏伟砂石料_2号车辆出_车牌识别', 'type': '', 'lng': 103.862148, 'lat': 27.314069, 'ptz_type': 3}, {'gb_id': '53060000411320004105_53060000411180000041', 'online': 1, 'name': '宏伟砂石料_2号车道_货箱识别', 'type': '', 'lng': 103.862134, 'lat': 27.313994, 'ptz_type': 3}, {'gb_id': '53060000411320004106_53060000411180000041', 'online': 1, 'name': '宏伟砂石料_1号地磅进_车牌识别', 'type': '', 'lng': 103.862007, 'lat': 27.313981, 'ptz_type': 3}, {'gb_id': '53060000411320004107_53060000411180000041', 'online': 1, 'name': '宏伟砂石料_2号车辆入_车牌识别', 'type': '', 'lng': 103.861781, 'lat': 27.311488, 'ptz_type': 3}, {'gb_id': '53060000411320004108_53060000411180000041', 'online': 1, 'name': '宏伟砂石料_1号地磅_货箱识别', 'type': '', 'lng': 103.861175, 'lat': 27.312377, 'ptz_type': 3}, {'gb_id': '53060000411320004109_53060000411180000041', 'online': 1, 'name': '宏伟砂石料_1号地磅出_车牌识别', 'type': '', 'lng': 103.861711, 'lat': 27.31249, 'ptz_type': 3}, {'gb_id': '53060000411320004110_53060000411180000041', 'online': 1, 'name': '宏伟砂石料_1号_全域监控', 'type': '', 'lng': 103.861654, 'lat': 27.312991, 'ptz_type': 1}, {'gb_id': '53060000411320004111_53060000411180000041', 'online': 1, 'name': 'IP Camera', 'type': '', 'lng': 0, 'lat': 0, 'ptz_type': 3}, {'gb_id': '53060000411320004112_53060000411180000041', 'online': 1, 'name': 'IP Camera', 'type': '', 'lng': 0, 'lat': 0, 'ptz_type': 3}, {'gb_id': '53060000411320004113_53060000411180000041', 'online': 1, 'name': 'IP Camera', 'type': '', 'lng': 0, 'lat': 0, 'ptz_type': 3}, {'gb_id': '53060000411320004114_53060000411180000041', 'online': 1, 'name': '宏伟砂石-2号-全域球机', 'type': '', 'lng': 0, 'lat': 0, 'ptz_type': 1}], 'id': 101}, {'name': '昭通市昭阳区亿雕建材有限公司石灰岩矿', 'area_name': '小龙洞', 'total': 0, 'online': 0, 'device': [{'gb_id': '53060000411320004501_53060000411180000045', 'online': 1, 'name': '亿雕建材_1号_厂区内监控', 'type': '', 'lng': 103.832729, 'lat': 27.332445, 'ptz_type': 3}, {'gb_id': '53060000411320004502_53060000411180000045', 'online': 1, 'name': '亿雕建材_1号_破碎机监控', 'type': '', 'lng': 103.832461, 'lat': 27.33232, 'ptz_type': 3}, {'gb_id': '53060000411320004503_53060000411180000045', 'online': 1, 'name': '亿雕建材_2号_厂区内监控', 'type': '', 'lng': 103.833081, 'lat': 27.332282, 'ptz_type': 3}, {'gb_id': '53060000411320004504_53060000411180000045', 'online': 1, 'name': '亿雕建材_2号_破碎机监控', 'type': '', 'lng': 103.832729, 'lat': 27.332307, 'ptz_type': 3}, {'gb_id': '53060000411320004505_53060000411180000045', 'online': 1, 'name': 'IP Camera', 'type': '', 'lng': 103.830543, 'lat': 27.331869, 'ptz_type': 3}, {'gb_id': '53060000411320004506_53060000411180000045', 'online': 1, 'name': 'IP Camera', 'type': '', 'lng': 103.830698, 'lat': 27.332019, 'ptz_type': 3}, {'gb_id': '53060000411320004507_53060000411180000045', 'online': 1, 'name': 'IP Camera', 'type': '', 'lng': 103.830684, 'lat': 27.331831, 'ptz_type': 3}, {'gb_id': '53060000411320004508_53060000411180000045', 'online': 1, 'name': '亿雕建材_2号车道出_车牌识别', 'type': '', 'lng': 103.830825, 'lat': 27.331956, 'ptz_type': 3}, {'gb_id': '53060000411320004509_53060000411180000045', 'online': 1, 'name': '亿雕建材_2号车道进_车牌识别', 'type': '', 'lng': 103.830571, 'lat': 27.332076, 'ptz_type': 3}, {'gb_id': '53060000411320004510_53060000411180000045', 'online': 1, 'name': '亿雕建材_1号车道进_车牌识别', 'type': '', 'lng': 103.83202, 'lat': 27.332971, 'ptz_type': 3}, {'gb_id': '53060000411320004511_53060000411180000045', 'online': 1, 'name': '亿雕建材_1号车道_货箱识别', 'type': '', 'lng': 103.833658, 'lat': 27.332711, 'ptz_type': 3}, {'gb_id': '53060000411320004512_53060000411180000045', 'online': 1, 'name': '亿雕建材_2号车道_货箱识别', 'type': '', 'lng': 103.830598, 'lat': 27.331775, 'ptz_type': 3}, {'gb_id': '53060000411320004513_53060000411180000045', 'online': 1, 'name': '亿雕建材_1号车道出_车牌识别', 'type': '', 'lng': 0, 'lat': 0, 'ptz_type': 3}, {'gb_id': '53060000411320004514_53060000411180000045', 'online': 1, 'name': '亿雕建材_1号_全域监控', 'type': '', 'lng': 0, 'lat': 0, 'ptz_type': 1}, {'gb_id': '53060000411320004515_53060000411180000045', 'online': 1, 'name': '亿雕建材_2号_全域监控', 'type': '', 'lng': 0, 'lat': 0, 'ptz_type': 1}, {'gb_id': '53060000411320004516_53060000411180000045', 'online': 1, 'name': 'Channel15', 'type': '', 'lng': 0, 'lat': 0, 'ptz_type': 1}], 'id': 100}, {'name': '昭通市昭阳区晟永矿业有限公司石灰岩矿', 'area_name': '北闸', 'total': 0, 'online': 0, 'device': [{'gb_id': '53060000411320004301_53060000411180000043', 'online': 1, 'name': '晟永矿业_1号车道_货箱识别', 'type': '', 'lng': 0, 'lat': 0, 'ptz_type': 3}, {'gb_id': '53060000411320004302_53060000411180000043', 'online': 1, 'name': '晟永矿业_2号车道进_车牌识别', 'type': '', 'lng': 0, 'lat': 0, 'ptz_type': 3}, {'gb_id': '53060000411320004303_53060000411180000043', 'online': 1, 'name': '晟永矿业_1号车道出_车牌识别', 'type': '', 'lng': 0, 'lat': 0, 'ptz_type': 3}, {'gb_id': '53060000411320004304_53060000411180000043', 'online': 1, 'name': '晟永矿业_1号_全域监控', 'type': '', 'lng': 0, 'lat': 0, 'ptz_type': 1}, {'gb_id': '53060000411320004305_53060000411180000043', 'online': 1, 'name': '晟永矿业_1号车道进_车牌识别', 'type': '', 'lng': 0, 'lat': 0, 'ptz_type': 3}, {'gb_id': '53060000411320004306_53060000411180000043', 'online': 1, 'name': '晟永矿业_2号车道_货箱识别', 'type': '', 'lng': 0, 'lat': 0, 'ptz_type': 3}, {'gb_id': '53060000411320004307_53060000411180000043', 'online': 1, 'name': '晟永矿业_2号车道出_车牌识别', 'type': '', 'lng': 0, 'lat': 0, 'ptz_type': 3}, {'gb_id': '53060000411320004308_53060000411180000043', 'online': 1, 'name': '晟永矿业_1号_厂区内监控', 'type': '', 'lng': 0, 'lat': 0, 'ptz_type': 3}, {'gb_id': '53060000411320004309_53060000411180000043', 'online': 1, 'name': '晟永矿业_1号_破碎机监控', 'type': '', 'lng': 0, 'lat': 0, 'ptz_type': 3}, {'gb_id': '53060000411320004310_53060000411180000043', 'online': 1, 'name': '晟永矿业_2号_厂区内监控', 'type': '', 'lng': 0, 'lat': 0, 'ptz_type': 3}, {'gb_id': '53060000411320004311_53060000411180000043', 'online': 1, 'name': 'IP Camera', 'type': '', 'lng': 0, 'lat': 0, 'ptz_type': 3}, {'gb_id': '53060000411320004312_53060000411180000043', 'online': 1, 'name': 'IP Camera', 'type': '', 'lng': 0, 'lat': 0, 'ptz_type': 3}, {'gb_id': '53060000411320004313_53060000411180000043', 'online': 1, 'name': 'Channel12', 'type': '', 'lng': 0, 'lat': 0, 'ptz_type': 1}, {'gb_id': '53060000411320004314_53060000411180000043', 'online': 1, 'name': 'IP Camera', 'type': '', 'lng': 0, 'lat': 0, 'ptz_type': 3}], 'id': 99}, {'name': '昭通市昭阳区石鑫建材有限公司石灰岩矿', 'area_name': '北闸', 'total': 0, 'online': 0, 'device': [{'gb_id': '53060000411320003701_53060000411180000037', 'online': 1, 'name': '石鑫建材_2号车道_货箱识别', 'type': '', 'lng': 103.798887, 'lat': 27.418707, 'ptz_type': 3}, {'gb_id': '53060000411320003702_53060000411180000037', 'online': 1, 'name': '石鑫建材_1号车道进_车牌识别', 'type': '', 'lng': 103.799252, 'lat': 27.418769, 'ptz_type': 3}, {'gb_id': '53060000411320003703_53060000411180000037', 'online': 1, 'name': '石鑫建材_1号车道_货箱识别', 'type': '', 'lng': 103.799078, 'lat': 27.417549, 'ptz_type': 3}, {'gb_id': '53060000411320003704_53060000411180000037', 'online': 1, 'name': '石鑫建材_1号车道出_车牌识别', 'type': '3,7,2,1', 'lng': 103.799078, 'lat': 27.417441, 'ptz_type': 3}, {'gb_id': '53060000411320003705_53060000411180000037', 'online': 1, 'name': '石鑫建材_2号车道进_车牌识别', 'type': '3,7,2', 'lng': 103.799113, 'lat': 27.41738, 'ptz_type': 3}, {'gb_id': '53060000411320003706_53060000411180000037', 'online': 1, 'name': '石鑫建材_2号车道出_车牌识别', 'type': '7,2', 'lng': 103.798876, 'lat': 27.417549, 'ptz_type': 3}, {'gb_id': '53060000411320003707_53060000411180000037', 'online': 1, 'name': '石鑫建材_1号_破碎机监控', 'type': '3,7,2,1', 'lng': 103.798918, 'lat': 27.417461, 'ptz_type': 3}, {'gb_id': '53060000411320003708_53060000411180000037', 'online': 1, 'name': '石鑫建材_1号_厂区内监控', 'type': '', 'lng': 103.798946, 'lat': 27.417436, 'ptz_type': 3}, {'gb_id': '53060000411320003709_53060000411180000037', 'online': 1, 'name': '石鑫建材_2号_厂区内监控', 'type': '', 'lng': 103.797818, 'lat': 27.42019, 'ptz_type': 3}, {'gb_id': '53060000411320003710_53060000411180000037', 'online': 1, 'name': '石鑫建材_1号_全域监控', 'type': '', 'lng': 0, 'lat': 0, 'ptz_type': 1}, {'gb_id': '53060000411320003711_53060000411180000037', 'online': 1, 'name': '石鑫建材_2号_全域监控', 'type': '', 'lng': 0, 'lat': 0, 'ptz_type': 1}, {'gb_id': '53060000411320003712_53060000411180000037', 'online': 1, 'name': '石鑫建材_3号_全域监控', 'type': '', 'lng': 0, 'lat': 0, 'ptz_type': 1}, {'gb_id': '53060000411320003713_53060000411180000037', 'online': 1, 'name': '石鑫建材_1号车道_货箱识别', 'type': '', 'lng': 0, 'lat': 0, 'ptz_type': 1}], 'id': 98}, {'name': '昭通云一建材有限公司北闸镇箐门村云一石灰岩矿', 'area_name': '北闸', 'total': 0, 'online': 0, 'device': [{'gb_id': '53060000411320003601_53060000411320003601', 'online': 1, 'name': '昭通云一建材砂石料_1号_破碎机监控', 'type': '', 'lng': 0, 'lat': 0, 'ptz_type': 3}, {'gb_id': '53060000411320003602_53060000411320003601', 'online': 1, 'name': '昭通云一建材砂石料_3号_厂区内监控', 'type': '', 'lng': 0, 'lat': 0, 'ptz_type': 3}, {'gb_id': '53060000411320003603_53060000411320003601', 'online': 1, 'name': '昭通云一建材砂石料_2号_厂区内监控', 'type': '', 'lng': 0, 'lat': 0, 'ptz_type': 3}, {'gb_id': '53060000411320003604_53060000411320003601', 'online': 1, 'name': '昭通云一建材砂石料_1号_厂区内监控', 'type': '', 'lng': 0, 'lat': 0, 'ptz_type': 3}, {'gb_id': '53060000411320003605_53060000411320003601', 'online': 1, 'name': '昭通云一建材砂石料_2号车道_货箱识别', 'type': '', 'lng': 0, 'lat': 0, 'ptz_type': 3}, {'gb_id': '53060000411320003606_53060000411320003601', 'online': 1, 'name': '昭通云一建材砂石料_2号车道进_车牌识别', 'type': '', 'lng': 0, 'lat': 0, 'ptz_type': 3}, {'gb_id': '53060000411320003607_53060000411320003601', 'online': 1, 'name': '昭通云一建材砂石料_砂石料_1号车道_货箱识别', 'type': '', 'lng': 0, 'lat': 0, 'ptz_type': 3}, {'gb_id': '53060000411320003608_53060000411320003601', 'online': 1, 'name': '昭通云一建材砂石料_2号道路车道出_车牌识别', 'type': '', 'lng': 0, 'lat': 0, 'ptz_type': 3}, {'gb_id': '53060000411320003609_53060000411320003601', 'online': 1, 'name': '昭通云一建材砂石料_1号车地磅道出_车牌识别', 'type': '', 'lng': 0, 'lat': 0, 'ptz_type': 3}, {'gb_id': '53060000411320003610_53060000411320003601', 'online': 1, 'name': '昭通云一建材砂石料_1号车道进_车牌识别', 'type': '', 'lng': 0, 'lat': 0, 'ptz_type': 3}, {'gb_id': '53060000411320003611_53060000411320003601', 'online': 1, 'name': '昭通云一建材砂石料_1号_全域监控', 'type': '', 'lng': 0, 'lat': 0, 'ptz_type': 1}, {'gb_id': '53060000411320003612_53060000411320003601', 'online': 1, 'name': '昭通云一建材砂石料_1号_全域监控', 'type': '', 'lng': 0, 'lat': 0, 'ptz_type': 1}], 'id': 97}, {'name': '昭通市昭阳区宏凯砂石料有限责任公司石灰岩矿', 'area_name': '小龙洞', 'total': 0, 'online': 0, 'device': [{'gb_id': '53060000411320003101_53060000411180000031', 'online': 1, 'name': '宏凯砂石料_1号_厂区内监控', 'type': '', 'lng': 103.827443, 'lat': 27.341199, 'ptz_type': 3}, {'gb_id': '53060000411320003102_53060000411180000031', 'online': 1, 'name': '宏凯砂石料-厂区监控', 'type': '', 'lng': 103.826883, 'lat': 27.340002, 'ptz_type': 3}, {'gb_id': '53060000411320003103_53060000411180000031', 'online': 1, 'name': '宏凯沙石-破碎近景', 'type': '7,3,1', 'lng': 103.825732, 'lat': 27.341656, 'ptz_type': 3}, {'gb_id': '53060000411320003104_53060000411180000031', 'online': 1, 'name': '宏凯砂石料_1号车道出_车牌识别', 'type': '7,2', 'lng': 103.825723, 'lat': 27.341622, 'ptz_type': 3}, {'gb_id': '53060000411320003105_53060000411180000031', 'online': 1, 'name': '宏凯砂石料_1号车道_货箱识别', 'type': '7,2', 'lng': 103.825655, 'lat': 27.341648, 'ptz_type': 3}, {'gb_id': '53060000411320003106_53060000411180000031', 'online': 1, 'name': '宏凯砂石料_2号车道_货箱识别', 'type': '1', 'lng': 103.825686, 'lat': 27.341622, 'ptz_type': 3}, {'gb_id': '53060000411320003107_53060000411180000031', 'online': 1, 'name': '宏凯砂石料_2号车道进_车牌识别', 'type': '1', 'lng': 103.825649, 'lat': 27.341618, 'ptz_type': 3}, {'gb_id': '53060000411320003108_53060000411180000031', 'online': 1, 'name': '宏凯砂石料_1号车道进_车牌识别', 'type': '3,1', 'lng': 103.825782, 'lat': 27.341634, 'ptz_type': 3}, {'gb_id': '53060000411320003109_53060000411180000031', 'online': 1, 'name': 'IP Camera', 'type': '2', 'lng': 103.826253, 'lat': 27.340896, 'ptz_type': 3}, {'gb_id': '53060000411320003110_53060000411180000031', 'online': 1, 'name': '宏凯砂石料_2号_全域监控', 'type': '', 'lng': 0, 'lat': 0, 'ptz_type': 1}, {'gb_id': '53060000411320003111_53060000411180000031', 'online': 1, 'name': '宏凯砂石料_2号车道出_车牌识别', 'type': '', 'lng': 0, 'lat': 0, 'ptz_type': 3}, {'gb_id': '53060000411320003112_53060000411180000031', 'online': 1, 'name': '宏凯砂石料_1号_全域监控', 'type': '', 'lng': 0, 'lat': 0, 'ptz_type': 1}, {'gb_id': '53060000411320003113_53060000411180000031', 'online': 1, 'name': 'IP Camera', 'type': '', 'lng': 0, 'lat': 0, 'ptz_type': 3}], 'id': 96}, {'name': '昭通万亩禾山农业科技有限公司石灰岩矿', 'area_name': '乐居', 'total': 0, 'online': 0, 'device': [{'gb_id': '53060000411320005001_53060000411180000050', 'online': 1, 'name': '万亩禾山_1号车道出_车牌识别', 'type': '', 'lng': 103.566097, 'lat': 27.355165, 'ptz_type': 3}, {'gb_id': '53060000411320005002_53060000411180000050', 'online': 1, 'name': '万亩禾山_2号车道出_车牌识别', 'type': '', 'lng': 103.566054, 'lat': 27.355161, 'ptz_type': 3}, {'gb_id': '53060000411320005003_53060000411180000050', 'online': 1, 'name': '万亩禾山_2号车道进_车牌识别', 'type': '', 'lng': 103.565996, 'lat': 27.355155, 'ptz_type': 3}, {'gb_id': '53060000411320005004_53060000411180000050', 'online': 1, 'name': '万亩禾山_1号车道进_车牌识别', 'type': '', 'lng': 103.56601, 'lat': 27.355134, 'ptz_type': 3}, {'gb_id': '53060000411320005005_53060000411180000050', 'online': 1, 'name': '万亩禾山_2号车道_货箱识别', 'type': '', 'lng': 103.56614, 'lat': 27.355188, 'ptz_type': 3}, {'gb_id': '53060000411320005006_53060000411180000050', 'online': 2, 'name': '万亩禾山-破碎机监控', 'type': '', 'lng': 103.565203, 'lat': 27.355391, 'ptz_type': 3}, {'gb_id': '53060000411320005007_53060000411180000050', 'online': 1, 'name': '万亩禾山-厂区监控', 'type': '', 'lng': 103.564839, 'lat': 27.355753, 'ptz_type': 3}, {'gb_id': '53060000411320005008_53060000411180000050', 'online': 1, 'name': '万亩禾山-全域监控', 'type': '', 'lng': 103.563487, 'lat': 27.355582, 'ptz_type': 1}, {'gb_id': '53060000411320005009_53060000411180000050', 'online': 1, 'name': '万亩禾山_1号车道_货箱识别', 'type': '', 'lng': 103.566046, 'lat': 27.355142, 'ptz_type': 3}], 'id': 95}, {'name': '昭通通达建材有限公司昭阳区酒渔九家人石灰岩采区', 'area_name': '洒渔', 'total': 0, 'online': 0, 'device': [{'gb_id': '53060000411320005401_53060000411180000054', 'online': 1, 'name': '通达建材_1号_厂区内监控', 'type': '', 'lng': 103.613194, 'lat': 27.390448, 'ptz_type': 3}, {'gb_id': '53060000411320005402_53060000411180000054', 'online': 1, 'name': '通达建材_1号_破碎机监控', 'type': '', 'lng': 103.612829, 'lat': 27.391058, 'ptz_type': 3}, {'gb_id': '53060000411320005403_53060000411180000054', 'online': 1, 'name': '通达建材_1号车道进_车牌识别', 'type': '', 'lng': 103.611459, 'lat': 27.392458, 'ptz_type': 3}, {'gb_id': '53060000411320005404_53060000411180000054', 'online': 1, 'name': '通达建材_2号车道_货箱识别', 'type': '', 'lng': 103.61149, 'lat': 27.392446, 'ptz_type': 3}, {'gb_id': '53060000411320005405_53060000411180000054', 'online': 1, 'name': '通达建材_1号车道出_车牌识别', 'type': '', 'lng': 103.611404, 'lat': 27.392483, 'ptz_type': 3}, {'gb_id': '53060000411320005406_53060000411180000054', 'online': 1, 'name': '通达建材_2号车道出_车牌识别', 'type': '', 'lng': 103.611373, 'lat': 27.392449, 'ptz_type': 3}, {'gb_id': '53060000411320005407_53060000411180000054', 'online': 1, 'name': '通达建材_2号车道进_车牌识别', 'type': '', 'lng': 103.611418, 'lat': 27.392446, 'ptz_type': 3}, {'gb_id': '53060000411320005408_53060000411180000054', 'online': 1, 'name': '通达建材_1号车道_货箱识别', 'type': '', 'lng': 103.611452, 'lat': 27.392425, 'ptz_type': 3}, {'gb_id': '53060000411320005409_53060000411180000054', 'online': 1, 'name': '通达建材_3号_厂区内监控', 'type': '', 'lng': 103.613911, 'lat': 27.390442, 'ptz_type': 3}], 'id': 94}, {'name': '昭通市昭阳区棠梨坡砂石料有限公司石灰岩矿', 'area_name': '小龙洞', 'total': 0, 'online': 0, 'device': [{'gb_id': '53060000411320003501_53060000411180000035', 'online': 1, 'name': '棠梨坡砂石料_1号车道进_车牌识别', 'type': '1', 'lng': 103.811661, 'lat': 27.349621, 'ptz_type': 3}, {'gb_id': '53060000411320003502_53060000411180000035', 'online': 1, 'name': '棠梨坡砂石料_2号车道出_车牌识别', 'type': '3,1', 'lng': 103.811712, 'lat': 27.349553, 'ptz_type': 3}, {'gb_id': '53060000411320003503_53060000411180000035', 'online': 1, 'name': '棠梨坡砂石料_2号车道进_车牌识别', 'type': '1', 'lng': 103.811661, 'lat': 27.349497, 'ptz_type': 3}, {'gb_id': '53060000411320003504_53060000411180000035', 'online': 1, 'name': '棠梨坡砂石料_1号车道_货箱识别', 'type': '7,2', 'lng': 103.811674, 'lat': 27.34944, 'ptz_type': 3}, {'gb_id': '53060000411320003505_53060000411180000035', 'online': 1, 'name': '棠梨坡砂石料_2号_全域监控', 'type': '4,5', 'lng': 103.813071, 'lat': 27.350805, 'ptz_type': 1}, {'gb_id': '53060000411320003506_53060000411180000035', 'online': 1, 'name': '棠梨坡砂石料_1号_全域监控', 'type': '4,5', 'lng': 103.81321, 'lat': 27.350038, 'ptz_type': 1}, {'gb_id': '53060000411320003507_53060000411180000035', 'online': 1, 'name': '棠梨坡砂石料_1号_厂区内监控', 'type': '', 'lng': 103.812131, 'lat': 27.35041, 'ptz_type': 3}, {'gb_id': '53060000411320003508_53060000411180000035', 'online': 1, 'name': '棠梨坡砂石料_1号_破碎机监控', 'type': '2', 'lng': 103.812436, 'lat': 27.350388, 'ptz_type': 3}, {'gb_id': '53060000411320003509_53060000411180000035', 'online': 1, 'name': '棠梨坡砂石料_2号_厂区内监控', 'type': '', 'lng': 103.812372, 'lat': 27.350252, 'ptz_type': 3}, {'gb_id': '53060000411320003510_53060000411180000035', 'online': 1, 'name': '棠梨坡砂石料_1号车道出_车牌识别', 'type': '', 'lng': 0, 'lat': 0, 'ptz_type': 3}, {'gb_id': '53060000411320003511_53060000411180000035', 'online': 1, 'name': '棠梨坡砂石料_2号车道_货箱识别', 'type': '', 'lng': 0, 'lat': 0, 'ptz_type': 3}, {'gb_id': '53060000411320003512_53060000411180000035', 'online': 1, 'name': 'IP Camera', 'type': '', 'lng': 0, 'lat': 0, 'ptz_type': 3}, {'gb_id': '53060000411320003513_53060000411180000035', 'online': 1, 'name': 'IP Camera', 'type': '', 'lng': 0, 'lat': 0, 'ptz_type': 3}, {'gb_id': '53060000411320003514_53060000411180000035', 'online': 1, 'name': '棠梨坡砂石料_2号_破碎机监控', 'type': '', 'lng': 0, 'lat': 0, 'ptz_type': 3}], 'id': 93}, {'name': '华新水泥（昭通）有限公司石灰石矿', 'area_name': '北闸', 'total': 0, 'online': 0, 'device': [{'gb_id': '53060000411320004201_53060000411180000042', 'online': 1, 'name': '昭阳华新水泥_1号_厂区内监控', 'type': '', 'lng': 0, 'lat': 0, 'ptz_type': 3}, {'gb_id': '53060000411320004202_53060000411180000042', 'online': 1, 'name': '华新水泥_1号车道_货箱识别', 'type': '', 'lng': 0, 'lat': 0, 'ptz_type': 3}, {'gb_id': '53060000411320004203_53060000411180000042', 'online': 1, 'name': '昭阳华新水泥_1号车道出_车牌识别', 'type': '', 'lng': 0, 'lat': 0, 'ptz_type': 3}, {'gb_id': '53060000411320004204_53060000411180000042', 'online': 1, 'name': '昭阳华新水泥_2号车道进_车牌识别', 'type': '', 'lng': 0, 'lat': 0, 'ptz_type': 3}, {'gb_id': '53060000411320004205_53060000411180000042', 'online': 1, 'name': '昭阳华新水泥_1号车道进_车牌识别', 'type': '', 'lng': 0, 'lat': 0, 'ptz_type': 3}, {'gb_id': '53060000411320004206_53060000411180000042', 'online': 1, 'name': '华新水泥_2号车道_货箱识别', 'type': '', 'lng': 0, 'lat': 0, 'ptz_type': 3}, {'gb_id': '53060000411320004207_53060000411180000042', 'online': 1, 'name': '昭阳华新水泥_1号_全域监控', 'type': '', 'lng': 0, 'lat': 0, 'ptz_type': 1}, {'gb_id': '53060000411320004208_53060000411180000042', 'online': 1, 'name': '昭阳华新水泥_2号车道出车牌识别', 'type': '', 'lng': 0, 'lat': 0, 'ptz_type': 3}, {'gb_id': '53060000411320004209_53060000411180000042', 'online': 2, 'name': '昭阳华新水泥_2号_全域监控', 'type': '', 'lng': 0, 'lat': 0, 'ptz_type': 1}, {'gb_id': '53060000411320004210_53060000411180000042', 'online': 2, 'name': '昭阳华新水泥_1号_全域监控', 'type': '', 'lng': 0, 'lat': 0, 'ptz_type': 1}, {'gb_id': '53060000411320004211_53060000411180000042', 'online': 1, 'name': '昭阳华新水泥_1号_全域监控', 'type': '', 'lng': 0, 'lat': 0, 'ptz_type': 1}, {'gb_id': '53060000411320004212_53060000411180000042', 'online': 2, 'name': '昭阳华新水泥_1号_破碎机监控', 'type': '', 'lng': 0, 'lat': 0, 'ptz_type': 1}], 'id': 91}, {'name': '昭通市昭阳区太安建材有限公司石灰岩矿', 'area_name': '盘河', 'total': 0, 'online': 0, 'device': [{'gb_id': '53060000411320004601_53060000411180000046', 'online': 1, 'name': '太安建材_1号_厂区内监控', 'type': '', 'lng': 103.826431, 'lat': 27.466933, 'ptz_type': 3}, {'gb_id': '53060000411320004602_53060000411180000046', 'online': 1, 'name': '太安建材_2号_厂区内监控', 'type': '', 'lng': 103.82583, 'lat': 27.466476, 'ptz_type': 3}, {'gb_id': '53060000411320004603_53060000411180000046', 'online': 1, 'name': '太安建材_1号_破碎机监控', 'type': '', 'lng': 103.826731, 'lat': 27.466761, 'ptz_type': 3}, {'gb_id': '53060000411320004604_53060000411180000046', 'online': 1, 'name': '太安建材_2号车道进_车牌识别', 'type': '', 'lng': 103.828212, 'lat': 27.465143, 'ptz_type': 3}, {'gb_id': '53060000411320004605_53060000411180000046', 'online': 1, 'name': '太安建筑_1号车道进_车牌识别', 'type': '', 'lng': 103.828233, 'lat': 27.465048, 'ptz_type': 3}, {'gb_id': '53060000411320004606_53060000411180000046', 'online': 1, 'name': '太安建材_1号车道出_车牌识别', 'type': '', 'lng': 103.828233, 'lat': 27.464895, 'ptz_type': 3}, {'gb_id': '53060000411320004607_53060000411180000046', 'online': 1, 'name': '太安建材_2号车道出_车牌识别', 'type': '', 'lng': 103.828448, 'lat': 27.46539, 'ptz_type': 3}, {'gb_id': '53060000411320004608_53060000411180000046', 'online': 1, 'name': '太安建材_1号车道_货箱识别', 'type': '', 'lng': 103.828534, 'lat': 27.465219, 'ptz_type': 3}, {'gb_id': '53060000411320004609_53060000411180000046', 'online': 1, 'name': '太安建材_2号车道_货箱识别', 'type': '', 'lng': 103.828491, 'lat': 27.465105, 'ptz_type': 3}, {'gb_id': '53060000411320004610_53060000411180000046', 'online': 1, 'name': '太安建材_2号_全域监控', 'type': '', 'lng': 103.824521, 'lat': 27.467142, 'ptz_type': 1}, {'gb_id': '53060000411320004611_53060000411180000046', 'online': 1, 'name': '太安建材_1号_全域监控', 'type': '', 'lng': 103.826517, 'lat': 27.460021, 'ptz_type': 1}, {'gb_id': '53060000411320004612_53060000411180000046', 'online': 2, 'name': '太安建材_4号_厂区监控', 'type': '', 'lng': 0, 'lat': 0, 'ptz_type': 3}, {'gb_id': '53060000411320004613_53060000411180000046', 'online': 1, 'name': '太安建材_3号_全域监控', 'type': '', 'lng': 0, 'lat': 0, 'ptz_type': 1}], 'id': 90}, {'name': '大关县天星镇幸福洞石英砂厂', 'area_name': '天星', 'total': 0, 'online': 0, 'device': [{'gb_id': '53060000411320013501_53060000411180000135', 'online': 1, 'name': '大关幸福洞_1号车道出_车牌识别', 'type': '5,1', 'lng': 0, 'lat': 0, 'ptz_type': 3}, {'gb_id': '53060000411320013502_53060000411180000135', 'online': 1, 'name': '大关幸福洞_1号车道_货箱识别', 'type': '2', 'lng': 0, 'lat': 0, 'ptz_type': 3}, {'gb_id': '53060000411320013503_53060000411180000135', 'online': 1, 'name': '大关幸福洞_1号车道进_车牌识别', 'type': '1', 'lng': 0, 'lat': 0, 'ptz_type': 3}, {'gb_id': '53060000411320013504_53060000411180000135', 'online': 1, 'name': '大关幸福洞_1号_全域监控', 'type': '', 'lng': 0, 'lat': 0, 'ptz_type': 1}, {'gb_id': '53060000411320013505_53060000411180000135', 'online': 1, 'name': '大关幸福洞_2号_全域监控', 'type': '5', 'lng': 0, 'lat': 0, 'ptz_type': 1}], 'id': 89}, {'name': '大关县天星镇星月砂石料场', 'area_name': '天星', 'total': 0, 'online': 0, 'device': [{'gb_id': '53060000411320013701_53060000411180000137', 'online': 1, 'name': '星月砂石_1号车道进_车牌识别', 'type': '2,1', 'lng': 103.977831, 'lat': 27.809773, 'ptz_type': 3}, {'gb_id': '53060000411320013702_53060000411180000137', 'online': 1, 'name': '星月砂石_2号车道出_车牌识别', 'type': '2,1', 'lng': 103.977616, 'lat': 27.809762, 'ptz_type': 3}, {'gb_id': '53060000411320013703_53060000411180000137', 'online': 1, 'name': '星月砂石_2号_厂区内监控', 'type': '', 'lng': 103.976651, 'lat': 27.809807, 'ptz_type': 3}, {'gb_id': '53060000411320013704_53060000411180000137', 'online': 1, 'name': '星月砂石_1号_厂区内监控', 'type': '', 'lng': 103.976498, 'lat': 27.809762, 'ptz_type': 3}, {'gb_id': '53060000411320013705_53060000411180000137', 'online': 1, 'name': '星月砂石_1号车道出_车牌识别', 'type': '2,1', 'lng': 103.977882, 'lat': 27.809717, 'ptz_type': 3}, {'gb_id': '53060000411320013706_53060000411180000137', 'online': 1, 'name': '星月砂石_2号车道_货箱识别', 'type': '2', 'lng': 103.977692, 'lat': 27.809694, 'ptz_type': 3}, {'gb_id': '53060000411320013707_53060000411180000137', 'online': 1, 'name': '星月砂石_1号车道_货箱识别', 'type': '2', 'lng': 103.977544, 'lat': 27.809753, 'ptz_type': 3}, {'gb_id': '53060000411320013708_53060000411180000137', 'online': 1, 'name': '星月砂石_1号_破碎机监控', 'type': '', 'lng': 103.975969, 'lat': 27.809799, 'ptz_type': 3}, {'gb_id': '53060000411320013709_53060000411180000137', 'online': 1, 'name': '星月砂石_2号车道进_车牌识别', 'type': '2,1', 'lng': 103.977791, 'lat': 27.809708, 'ptz_type': 3}, {'gb_id': '53060000411320013710_53060000411180000137', 'online': 1, 'name': '星月砂石_1号_全域监控', 'type': '', 'lng': 103.975382, 'lat': 27.810682, 'ptz_type': 1}, {'gb_id': '53060000411320013711_53060000411180000137', 'online': 2, 'name': '星月砂石_2号_全域监控', 'type': '', 'lng': 103.975001, 'lat': 27.809425, 'ptz_type': 1}], 'id': 86}, {'name': '大关县凉水沟砂石厂', 'area_name': '寿山', 'total': 0, 'online': 0, 'device': [{'gb_id': '53060000411320013401_53060000411180000134', 'online': 1, 'name': '凉水沟砂石厂_2号_全域监控', 'type': '5', 'lng': 103.907753, 'lat': 28.012053, 'ptz_type': 1},